{"ChIJwdkk5G1ZzB0R_SUVWJpSb6Y":{"geometry":{"location":{"lat":-33.851365,"lng":18.571616}},"id":"6f99335c0573dbf8b73114f1afa9977c4f5bec52","place_id":"ChIJwdkk5G1ZzB0R_SUVWJpSb6Y","reference":"CmRSAAAAeXaUYPXM2_7G-QWumcNzGIzAlq1P3hjpezuFiiJoAymJ8YIXu4XzX1hkVPC3ZNFBoTP9vizFMm731FAz34ontlXzuh_xcYyJvv22GSZj4UUNcQcwHxms9d8DcCGAp9xDEhABUwFSkKI-7at7jxAOtLn-GhStRdZmAapH8-A7-kA2RQaU4dASHQ"},"ChIJj_APpIxXzB0RZCmg0j5_X1M":{"geometry":{"location":{"lat":-33.79901600000001,"lng":18.623987}},"id":"78e5af26043f6b5ffda08a66ff1e2be2497fce30","place_id":"ChIJj_APpIxXzB0RZCmg0j5_X1M","reference":"CmRRAAAAeAfRVPnakJ4VqOPdQ1DMyu_nQk6gF4g97YwxLTez4HeImJ9IwVvROVwHi4ly5BtmC_fz9h6ZwfMeOnH1gDZegrWDADwEZrHGlXSIkong71Wx_J1Y_4y3de0WQTRQnDuyEhBwbvD0G5niv53JTnnkgY4LGhSvQujAGGJSHYnv9oqwq8hPZBNbaw"},"ChIJOdGXRjqozR0RI8Qd4Ez0dTs":{"geometry":{"location":{"lat":-34.034568,"lng":18.739318}},"id":"1dae4d1fbcd9dd85b8bb89ff46d05eaaf370ce69","place_id":"ChIJOdGXRjqozR0RI8Qd4Ez0dTs","reference":"CmRRAAAAIkwiEOQcaH68Njl9fD5lLXhukqQ0FCZiL5jsmun7KQRdlgTxGEdyyyR0_bhIVXblsjEIABZXFsuwnLHL6MyZV9munlJGOfiOPnQJvN-q3gUgoA2fZv4-wj4T9Xw-35-fEhD9i8gEpOY3y6xIoP79tIXPGhR325FVt791cccbG2UaYkp_JHvVEA"},"ChIJ9VGvBPtYzB0RJWs1bGxekJQ":{"geometry":{"location":{"lat":-33.8249445,"lng":18.5660177}},"id":"db753ba421ea13ab150983f7ac86c340e84f3834","place_id":"ChIJ9VGvBPtYzB0RJWs1bGxekJQ","reference":"CmRSAAAAyWsHn_gT-u1SctsnvpD2UTG5Tbn3JDAjJnHYL5NZUhHLmK09NV_gm9N483pk7JvQWmgeT4x0-rwyjzM2AlNH8VX18AYE1CqKdcq58TdsLXH7hKuKCIZfshOfjsJFKZqpEhB_h3q7Z5D9L1Yq_Uy8icg0GhTMmvRFNpp6wiq0SDtt4C_s1h1W5g"},"ChIJO1mizFeozR0RXT7d_wA5J7M":{"geometry":{"location":{"lat":-33.76603980000001,"lng":18.9579455}},"id":"46fae88d8e1995a4e8a906cfe1017f1668b2341a","place_id":"ChIJO1mizFeozR0RXT7d_wA5J7M","reference":"CmRSAAAAePJwerud70lh7ApUTNUMTjS8pV4N82uNWABpYSCOFYvJIAChDTsLC9ZgehZU9Ck69VbZtp7m_Yh8B3xtbUPhabFAeCO9C3hGBawuk8xMy0nEFS6nk8ryMVBCKc1BXYqMEhDcXDXwp3zILbBhKdmyNUj5GhTDc5lUzoEf7AHw30hQvuhna6kqTQ"},"ChIJqZ4XAcKvzR0Rhr9E7o4fXDc":{"geometry":{"location":{"lat":-33.878112,"lng":18.973679}},"id":"1f59029f160972b060f89e669c50ba1e5acf278e","place_id":"ChIJqZ4XAcKvzR0Rhr9E7o4fXDc","reference":"CmRRAAAAqR1qj2nAT1-h6LKpq9sXzPHdHJVF7uk7gydq6ril80UKDsQ4IrWn82aT94CXlzB24w-QJ1ECocRHKtKBqVs6vdkaLGeoSmsPfMb9pahtRuzskGJcNjOz6cxLhVt-esyNEhDNTTXpXYkSH0QQFPupGFAXGhRu2FfzHniQZFTzAranf-BLcmIVxw"},"ChIJuxNWYrxXzB0RHyPFwu6bd7Y":{"geometry":{"location":{"lat":-33.802626,"lng":18.64632}},"id":"02f1a9f8ec04f32dad10607b8eadfc5a9f99f267","place_id":"ChIJuxNWYrxXzB0RHyPFwu6bd7Y","reference":"CmRSAAAAiqZ7cbrwPQSLgLpl6uVgWKnvav2bf2TqapxLPhee26SQTGo-voYqC3EAdxBT6OFGjQBsfyto7QBhZYt_0upv_rB94mn5moFeC5p9kLadHwW-13oUW0kh-L07PTKSA7h4EhDcg0zZC7nH9V1IG8oGq_0YGhSauxuWlIB55n4CazCOPlMjNd-_BA"},"ChIJI9rFCsNNzB0RIip-GCDem_8":{"geometry":{"location":{"lat":-33.9582599,"lng":18.72731}},"id":"dfa7968a71fe6909735af97521606fc0145dbdaf","place_id":"ChIJI9rFCsNNzB0RIip-GCDem_8","reference":"CmRSAAAAkwRC3vnlo4x-gQLe9oKZLG61houqEG7Dnbue_9ELpJ7pydzLOPXDkUPRJmVSeLjkyVx18dtqkQ6PZdpnZTGVecl1HNfc_jHvKhi0GRTiXuHsaVDspVQxsNGWACr4yT8GEhDMwwBWWN-N58qV4YnyfONIGhQspgiZnix2v9ThtodeYDnTvlrKNA"},"ChIJfUGKa_1RzB0R3ZjjCfHwM7o":{"geometry":{"location":{"lat":-33.929897,"lng":18.729458}},"id":"21cdc9d0f3b19263cffa94bb2cb6c879c04d2bb3","place_id":"ChIJfUGKa_1RzB0R3ZjjCfHwM7o","reference":"CmRSAAAAwIrr5OrdNf6qvIo3Fe8E-csfsm74GRNzqF2EEwTE7E8qB30Hq9oPRL6yYC6mnO-NDGvV91dTmT93u0uFfzKz4YCi4ViTBdVlDU3Y6w7czdhTe_ejGRzY5mbeyM3k7s4rEhCg3RNcYUA7H46MzeJdgyhqGhReb909cwppraUjf5fAd2MSEJ5tpA"},"ChIJ80Fzhx6vzR0RjOEqya7KzKs":{"geometry":{"location":{"lat":-33.837422,"lng":18.95328199999999}},"id":"6139f678411e257fa6f8eef712df5a5f8646617b","place_id":"ChIJ80Fzhx6vzR0RjOEqya7KzKs","reference":"CmRSAAAAVPjfCoGRRGArK0xidaoalCvQMolfHecO-S0IpSWitbkFx0C4g6FuIT7AtF884urMSwRr8gsKecrTnDtCcaX76zizlN1pfDGeKhnzZLfQDXUyGV7BzCpGb1cg-swwYN-rEhDQqgW_ueyo3SD8knpysLDZGhQ-aOta89RZE8PEnLUK-I0VOFY1ew"},"ChIJTXmFxcGyzR0RTjFwCPkxUiw":{"geometry":{"location":{"lat":-33.9276147,"lng":18.8322536}},"id":"e3316f72386cbba92b0b2254ee2e7826c15899da","place_id":"ChIJTXmFxcGyzR0RTjFwCPkxUiw","reference":"CmRRAAAAL9LztM1KaPBIdQ3_GQB8bsLkFeR3cRTDkbqTpIuPEB2GgbLMJf6ms5Cd9gT7U4d0N1PdjpAlmDdVJz7NHwKzSQMiLmGb4vqDYDJT7W4BgrJXtEp5pSF9ivw4rwbxq8J7EhANnuec7PxLdvhunWIhtPc3GhRCJdcAKRAIiT24aj1RbPtiTVl8kQ"},"ChIJ1Xz4g1hTzB0RR541YHuhofg":{"geometry":{"location":{"lat":-33.8372713,"lng":18.7924817}},"id":"926deafd925ce529aeb5b6cd1f2a37553db49507","place_id":"ChIJ1Xz4g1hTzB0RR541YHuhofg","reference":"CmRSAAAAw8BPo2Bt-9IuITIybeo_ZwQhTMtTYWHcEd9du-F-Sr3eCVey62qCt_4WJf1xAEB_1_9zhn9kXeedoriTJAaTPsuQs7dKlruLioV_5NPbLYe9KzdOYos9ZV2t3g0z_WC1EhBSfohJ2Bez2awinQYm7x6jGhTCtmDD_mUZSUNrCq6cnw7vziaN_Q"},"ChIJCbsHAPaszR0Rc3cWYFOVr70":{"geometry":{"location":{"lat":-33.84046,"lng":18.8640115}},"id":"226711e244738af0f3d306ec51439eb9b5aabd7f","place_id":"ChIJCbsHAPaszR0Rc3cWYFOVr70","reference":"CmRSAAAAQhGSX3L3nUDgewUf6ouLFsDUzBcrrtIR_OUoCiwXDU67dcAZoDrXaZwymbW4AvMabII19N4vsH8J14RYdu82hgPdvHS_bprGwacRt1hLiNlwGh8Jjjxe3wdRoMJl5GGJEhB1qfF9_X89NUx_i9ShRIarGhRDnIWWSButoarmrcm4rIXva2W-2A"},"ChIJezjaVvNNzB0RfNLvlumxjjI":{"geometry":{"location":{"lat":-33.942956,"lng":18.744216}},"id":"c2c892ecebba5d7884dedae92babc3765d7e9c42","place_id":"ChIJezjaVvNNzB0RfNLvlumxjjI","reference":"CmRRAAAASPIjA8c9bFa7kutc1dIiLKeyspmfZjopCTBdbDxAyK0v-OMe09sjklhALDOJsIW7QlQlUcnGWInG0GRi4PXwSx7uyY0mAuZSI5lGgf-Lr7UT-mSK2fqE-1KIZ3BP8ncNEhCIgA6FqWErbgsyOAv9128uGhRdxGBvR6exGXGGDc2HKG0BMyqXYQ"},"ChIJ129hMOeszR0RUhcgNrQGlZM":{"geometry":{"location":{"lat":-33.90958000000001,"lng":18.75536}},"id":"0d31fd442426a99f5249dd3eadb1f8048722eed7","place_id":"ChIJ129hMOeszR0RUhcgNrQGlZM","reference":"CmRSAAAAaW2p3qoxs-Gli7NG39VNDTA3KiXkb77FuW8o35gh8uTD2pbtcoV68mWgf_D9dQ75jMBUp6eFwCK8J_q10GT6iHmQRbElR9AvM7V0xujWedgSbdgw4RUM3Sos82rSZWlgEhD56Ed0Jv5ah6v_WHT_NQUCGhQpiB1vgZTUkJJA7j4-dGNZttYtHg"},"ChIJkRI7hCWyzR0R-hs6Dd6d5os":{"geometry":{"location":{"lat":-33.938299,"lng":18.894264}},"id":"8c2b84b135e394575ef642c6dc8818b97b6fb781","place_id":"ChIJkRI7hCWyzR0R-hs6Dd6d5os","reference":"CmRSAAAAvt3XGVBt1-lQ7uVNJ1UU0hbYRW0Lg8YYr6hfV0r9n8sU-s7vGoiwQI-UlGXWXDMpad2Dq6PNxEoDOylz_TpgFqscPS_tc9zfnpxw313Now94pQDxjjt2TlVMjCsVD-jjEhDjRiWJ6osyc679Ud9CJ45vGhQaLmJn6ho1uiGTVglLktXQsFh6vA"},"ChIJja3wS9mszR0RHZFuwaEKgRY":{"geometry":{"location":{"lat":-33.8700592,"lng":18.8254192}},"id":"951e43e7bce18501382fea94a6099729c34f3e28","place_id":"ChIJja3wS9mszR0RHZFuwaEKgRY","reference":"CmRRAAAAVwp3dKSlpp5LVZCHMgZuYrscAkdbI61meUeZzUC8ihldVLQApvQLYhD-333JSYBjnv6BJBfX4UAE2WTgIpXBC5VYbEOSTWNRUHDPXLoropP0KUd_UHgyrEeBVHSbU7NVEhCqIIyEgT5LM0iVhj4hrorDGhRoiYO1OM82FYKLjJSfWkHefS949A"},"ChIJDcvt0Z-pzR0RB8C1fxZNr8s":{"geometry":{"location":{"lat":-33.77174530000001,"lng":18.92423459999999}},"id":"41f2c9f489de23d3c1684931682007ab792bcad7","place_id":"ChIJDcvt0Z-pzR0RB8C1fxZNr8s","reference":"CmRSAAAAJfk2RCoCmAACtTTJu6agOR_v-OLY_gK3e70r9cqPTc01YIB36sbf8VWp-YAL3--EaPWhxdYNOk1pXFA6iGjsqDZTszj1ByiF07s8eP-VDzYON7g8f1STJp3K3S6KkhGwEhCmpSrDxPBKhF6M7UhSH9EgGhQQkccsOheT6hL0PVgK2u7xd2EVxA"},"ChIJz7smy7WtzR0RNVd0R7el4Ms":{"geometry":{"location":{"lat":-33.8706,"lng":18.87583}},"id":"f0843aad8e67e5a642c4408b2401e0f41bb538d5","place_id":"ChIJz7smy7WtzR0RNVd0R7el4Ms","reference":"CmRSAAAA2OzUjbihgeKSjE3tXAWZMEE5zKEf9v0iCnNdK2QqSJ7DTmJJ32ezOlzHwqa_uaM2UFqoapZFbAVdqjWKveRKoaN5FrKhfB4VLXnuLjst-vJ6Z5z91LvB5UzmjDF2b41oEhCN985CtNoyqo-YGGfJsxpBGhRQMVnpZVxtT4M7m0K_zdUMDN7rxg"},"ChIJ8dg2GQZqzB0RdaskDQc6xoQ":{"geometry":{"location":{"lat":-34.075346,"lng":18.4216474}},"id":"32c6ec98a1204b8b93466c3786debd25a895e6a3","place_id":"ChIJ8dg2GQZqzB0RdaskDQc6xoQ","reference":"CmRSAAAAHWmpbhaaGNg8zjeqipm8wyjkNAo_5MijfPxpOivpmFLuB16mHV6Eg8PL00jkS8b1_0FHJXKURtPdyaRHm9Lc9P_PFZCP16fSEamwb9_IvWyKQjhkgZT5OhlvqpFH8BVSEhBFsopvl3HSwLbWWm_eOCuLGhQyVaiGOY8AUc0z7fNI1V3bcrl7FA"},"ChIJc8RkIvBMzB0R28RCs0VvhMM":{"geometry":{"location":{"lat":-33.9735508,"lng":18.7821798}},"id":"a5d48976034e2930c225cf3c4441f5aa09562f98","place_id":"ChIJc8RkIvBMzB0R28RCs0VvhMM","reference":"CmRSAAAAukDByunMH7LTUoIsI8CYHJ1L2psg2FSEh4GIV5VybA-XVGrNTgHFHKI6ORHvr5PtvzIStzgH3OrXsi1v1p95MdgvPwbMK5_hV8JSWtCbquW3xuac1zU6eXLaumhdm_c3EhCTyrwr_aCBBt3d4mrphDnzGhRdpbWn6YjZlPt3WG-CzA7PJur_Qw"},"ChIJPwwprfW8zR0RrtBhy6raMVU":{"geometry":{"location":{"lat":-33.8995377,"lng":19.1274906}},"id":"5f5ba8a14b6fc3f5b6956e362cc7f195c9c15a08","place_id":"ChIJPwwprfW8zR0RrtBhy6raMVU","reference":"CmRRAAAA4M_6UKNyYIRxy2c8UqBHpIiUvA8TFITYIrU-tUPy8FLWCr4ElLHfKP5DGl2V52ehWJYbfFt6gb6MAwpd6GIvwSod2Lw0P1cEKDbdu_qkacZLaBSuGp95QNDAXSPNqqQREhBTW6Oq29xMcHL_j5blxK5VGhTCeuSf0h4-PZY90bVWFohW4puKkw"},"ChIJv1FWi40GzR0RSQYN42WLAVo":{"geometry":{"location":{"lat":-33.6586,"lng":18.93765}},"id":"ee30ffb782b42b43fc5f94d22b003d229b6fce7b","place_id":"ChIJv1FWi40GzR0RSQYN42WLAVo","reference":"CmRRAAAA2teA7rVHfZyOEShCP6zyywpFXMIwZbjjo5RYL9A8nkxTDvrOr89t4lzcTvrTwHKYEhgFNVkEjcsuNUtqbTOFKW1IcCiRuvQ0xfMHOORZXQfm7wiqa4KiNEcmsoy8YyGgEhBvvNE0O1PyD325QNCW4TSvGhQAIzg3c0JjJIow_XH9WTfXpO3OLA"},"ChIJfa-84cZSzB0RXxKSgCmmIFg":{"geometry":{"location":{"lat":-33.89833,"lng":18.79154}},"id":"32b96d9fb942243d059066be6f16ab34b5cc7cfe","place_id":"ChIJfa-84cZSzB0RXxKSgCmmIFg","reference":"CmRRAAAAonhzMI2MsfC8MC4hFeipws48b1i7c_z2YKOIwBz838hdvyjzWFfjcjESa3ls7_oflRFefdF6x6tnTFrilLXIHdeRwqfYdsiEi2-87t1SFf863pC0c0-B594v6kPRzEZmEhCEp-RPuyWPd97YrpLtKI7KGhS8NFlvRKMquLxDbhKrmLIjk3fXzg"},"ChIJZa8zj9yvzR0RE9Yspe-GKGQ":{"geometry":{"location":{"lat":-33.884524,"lng":18.968552}},"id":"73751362d4402e95748f9854f5ff3e8528959220","place_id":"ChIJZa8zj9yvzR0RE9Yspe-GKGQ","reference":"CmRRAAAA8gv7M4DhIJCtQgSCYc23VIb4d2WA0eoxzzx3ZgP6jjPk_5GBJ5OHUPwmNeIsZ2xuDUXgOSXT3MdAhMNFpJpsGhKEtUEDXbyYRrTXLYG3nDm_hj-jde7eiZ1FWIxKOoaGEhBHL6bFxxWdA5uDQ9PkNoukGhSPjavJGge5JfypF4RCXii_iUF9vQ"},"ChIJEVLz_2yyzR0RVZ5iKIiMmGA":{"geometry":{"location":{"lat":-33.92085,"lng":18.87868}},"id":"c1b1d90f2ef7aed29076fb7bbd2207a53aa0bdf9","place_id":"ChIJEVLz_2yyzR0RVZ5iKIiMmGA","reference":"CmRRAAAAn83oH0DY1c8xsCy7F9Nl0N2jOddwKH1US-NsAlXMyMyrC0UOO_V3BrA-Dh1lUQm4EJ-htM1rWaU7YcAC27ZSVJLFfwO8fC2Wm3Wfgrk5m3ufd3WL9LiSkfCmIJy08XzuEhDZrkF369dq8UHII1ZbrlFRGhSUdQOxr8lhxWnYSw7TdLbuoDIaTw"},"ChIJfYoifVqszR0RzuyPJbSksKw":{"geometry":{"location":{"lat":-33.8565812,"lng":18.8641768}},"id":"64b3e35e17dec585b7f9bd552a8d0cbe77636cef","place_id":"ChIJfYoifVqszR0RzuyPJbSksKw","reference":"CmRSAAAAwpnpB4-OJcVlZeK99grsctY7AR3BPjktvdnzq0pkwMK2nxdCVn3-r7uGJdteS20Sul4UQfsjvWl8lRSdswly72SLM2KsWIX6R1UFKlXvAz8-pvpbNK9W-i-NZJuDV-ZCEhCsvPaYVSeh_LMOehojIuSuGhTLAtf7mi9XzkODKhAM_1IzFwD3TA"},"ChIJhfdWtrRZzB0RvrBvF0enYwA":{"geometry":{"location":{"lat":-33.8263021,"lng":18.5902352}},"id":"8ef03ea065cbe191d9a8b19c1e1a2d56eae6dce3","place_id":"ChIJhfdWtrRZzB0RvrBvF0enYwA","reference":"ClRQAAAAgW18w4w64d-f_tfSBP3S6R7F6VpiGuR9gsXg69gYOcDMMSIfg4UL_l0MoBwNFfUa9hIiqRF8HxqfPObml5JDHUJ-JeYwdFmILnGSuacGwz8SECkmjwQqNXnhvWs3dmiJUG8aFLNDSsiD226uDuGzwZ6yoOi-Y6IW"},"ChIJteN-m46vzR0Rs2Tx2gNjzXc":{"geometry":{"location":{"lat":-33.86402,"lng":18.98977}},"id":"b3b5d3dcaa392fa751bc77dded0dceee13f936d9","place_id":"ChIJteN-m46vzR0Rs2Tx2gNjzXc","reference":"CmRRAAAA-q23DsYNhcxMIgJeIe5Fg3Re859Isv65YYe_LKyYDhpK3DXVsOhY-rwKt_zqtbmZu77tBk1GAQz_TI5qhiH3p92pVMTWIj-fStQshEHZpuiB5BqkQnF9SrkPXp5sTUpBEhA2K3YUD5JmW7nBsMTJSIWUGhQxKBX7YzTePJXi9nGLKpUFCLfxEQ"},"ChIJP6dtA8muzR0RWzS6NSLnC1A":{"geometry":{"location":{"lat":-33.8224963,"lng":18.9300348}},"id":"07919a2e3c727b7a1189c07e6ac33458b4d41826","place_id":"ChIJP6dtA8muzR0RWzS6NSLnC1A","reference":"CmRRAAAAZj7SyeHJ-2VaXnbty3k706rJmfj_9p2ykc71nEW3S2iOwJjGLqPsAidEm7xYV8KKyNm4h8FgK7f8RwJEaQRaJ5wn5eOaPIMT8uGAV7tA625SsYSVwtWLGmCSkHfKSP6JEhDfj3IV1LqgAjWMv8GU5ElWGhSWySPg2uoLAMwbLCDnrVSodvB2Lw"},"ChIJDyjhGNWszR0RHUcJ7CDy8A0":{"geometry":{"location":{"lat":-33.9008148,"lng":18.719137}},"id":"93654a03732248d7d2ac4df4c74d59ddb5cd9b2f","place_id":"ChIJDyjhGNWszR0RHUcJ7CDy8A0","reference":"CmRRAAAAYA-sI34E98_kODOVprxM_ryAprGuZ_2FhKybh9-3TtFPV20ycA-etcbjivDuaudBHf5ESLXrSi_Q7GPiM-Oxv_ukLMWrnaB9TeKlpqGkyiftThi_IgKgNBv7DZhzroNGEhCRmhZGG2bdfn7-EIhDxqz-GhSwtbrQQEFNo5q0oqnBE1_zDZN3jw"},"ChIJMw3E3VeozR0RIZTeETtgutU":{"geometry":{"location":{"lat":-33.7648743,"lng":19.0008635}},"id":"a125f233ac7fe677cd6c7faf85e3b88a23c6fa33","place_id":"ChIJMw3E3VeozR0RIZTeETtgutU","reference":"CmRSAAAAR9Bg-fzHNQmJ9Myxh5YYpnqWhDW2xV2w4hYh1zMOAQGe8Ne8MnzfhA4gpaIFS9fVjQa4wJ33wDDCyvQMdPxS5qCM0qfZUq6YQtnSKDy2y_DS_3O2AJml-1PwimAPNzSqEhArrmoM5gfXi8JYZy78GQiRGhTDs69Y6L8jQFaKeMlek9Sr9eZSLg"},"ChIJDeD7SvCrzR0RvqPpDBzWMYw":{"geometry":{"location":{"lat":-33.8041073,"lng":18.88626679999999}},"id":"2815c83c8b39fd1aaa297af871a33766d4def7be","place_id":"ChIJDeD7SvCrzR0RvqPpDBzWMYw","reference":"CmRSAAAAxZrsGap-zaDAIARVTYpZlxZn-0ZGPWEmTYGknkQuw_u2mWY4F_W39dxvkbZIUEXBj8FPM6wsBOM_Qp2a9jCzNVpcQPjSTmAOVAOWsHAYsRrO6gemH5AdTDc0EVtn29gKEhB6lucVnrv1Uvy3DD2ld4ImGhRL6EOO7x5VnGIRI85v-ZhjXB4Xwg"},"ChIJo-mk98RpzB0RbIsX_oD4mW4":{"geometry":{"location":{"lat":-34.0390659,"lng":18.4129785}},"id":"904d03e56cfeac24fcb5507a32d6cc912cda8725","place_id":"ChIJo-mk98RpzB0RbIsX_oD4mW4","reference":"CmRRAAAAMn48eGsCZMxkFhJmAliPkyD_5MGSKxhydleAssvRN9sfTWQhAmha6FYkmT4UcDBaX7suKY2HfG6cJQvpwPGFotuRQG7qxge7t1dyPKlAJeLPnIrpsaBHOQfLdFhbVZ3rEhBkbLNyCzxCLpMuROXu8ts8GhTbrLAyRlEoOkDLliRzWnSjoHh-sw"},"ChIJ1eW-uCIJzR0RGkeZM6BDFx8":{"geometry":{"location":{"lat":-33.6602258,"lng":19.0066267}},"id":"915b9428fd167b79ee7d460728341d607142539f","place_id":"ChIJ1eW-uCIJzR0RGkeZM6BDFx8","reference":"CmRRAAAAsB2TGc5IG5XR619OJKMbJzbvfKhlONj9XvnVf9JZat9arOEhaQWqKY81iWPVvFD0_OVqQs7LirvQGj3-MhozyvWUsvkSY-6YZp6jHGge8K_lGEOyEjjFGzeX1MaV7o3JEhBGd29_Zk94jD_nzjYTY3kVGhSTNjHEqYf_F2lO7izXeDLBKVEZsg"},"ChIJTVDQcMe0zR0RKCKAWOgRJgE":{"geometry":{"location":{"lat":-34.0256357,"lng":18.8233999}},"id":"592bd922be578b18d00a06d03a8dc508c6284580","place_id":"ChIJTVDQcMe0zR0RKCKAWOgRJgE","reference":"CmRRAAAAI605n5Lqf3kzAxciwsl410cE3Tq7KUFuWaqsmNE-Bm1GmcQcL-RuxpEpN4biR1V9-hTW6A0kT1reAIpuJd3cYl7P0iu32vrBgme-F51zNHq1CURQq15mrHzq4DMEpEhNEhAmWuSUIAwFNc-wr3CpeP2FGhTfD6ZwJFuZVtyYD8fSG7G72oG_rw"},"ChIJy0Ok87lQzB0RfVwyTTMn5kM":{"geometry":{"location":{"lat":-33.84010930000001,"lng":18.6005802}},"id":"5461180f204a86a2e09ddaa942e4c826f53dd413","place_id":"ChIJy0Ok87lQzB0RfVwyTTMn5kM","reference":"CmRRAAAAp52mLupRSSksg3ohTIQn_5GrH1EKX9K-aecB79DrV31NlVxTh9mOD7Rbwc0w-7Aj9Q61_w48vhpTldsIx9ziRNowJY2QyqPwUaWCXscbmjnjfnyhdJyHP_FsEF28x87AEhCjJEJY6eH1vLXIZ6WTwFQOGhQpCT2VsTSLU-NxbuIopyKemE8bnA"},"ChIJfWGVArtRzB0RFGQDAI3bw-0":{"geometry":{"location":{"lat":-33.9131611,"lng":18.7360136}},"id":"d83603c579117a21b566bcb18cc4749fe32e37d7","place_id":"ChIJfWGVArtRzB0RFGQDAI3bw-0","reference":"CmRSAAAAlj9QBL-AKVzGmoNvYChDxPTJmGrfc2fQuK4aAblvl2DwAM0ChdzISXEoXLgXWHFt50uGGIh7PqYQKFpl4linPgq0uygHbaKuTVR9_1I3ctOMGP5ZjdeA73EOasYcT5LwEhCLIXA9wo-UMmvr_lhhsEiTGhTUMXHT7s6paoAXCb95QPVHxiKmRw"},"ChIJfWGVArtRzB0RqgUd7P5UI4E":{"geometry":{"location":{"lat":-33.920939,"lng":18.740125}},"id":"f801af349ef764a633debbf420dbd672b926187a","place_id":"ChIJfWGVArtRzB0RqgUd7P5UI4E","reference":"CmRSAAAAI-qqkKB06BjSB7I7FE722J-vMadHAfydCTVol3nVpuwvn7H9svf0pLJOM6UgAQzAEmfrgs0qhQyJXVLT8Rk_NV4eGOvGsS50To60mUKM8xp8Ga3pNsS9IFjed1c58v21EhABDQCS2AX12wrylJkR9w_DGhRM3f2nPT1APBMvKLC08K6CPIWd2g"},"ChIJ24n5HiKlzR0R8sScy5Pak5w":{"geometry":{"location":{"lat":-33.86275690000001,"lng":19.0371704}},"id":"b82edfeb3a77d45796f7c3b0623aac57bd14c499","place_id":"ChIJ24n5HiKlzR0R8sScy5Pak5w","reference":"CmRSAAAA37eDU-dcPSg7YsWCkeOShk1tgaQ3fZMRoU-IiKMdtZYZ9dM2dFD3jwB2077H56xvFFxTffesmc3bMw4PQVZ1b-3xbZK0txMk29Wl9SjLJwBpm7u2TgHPi12H5AazXbyJEhCUCZ65BCSTeTmFIxmfKnYtGhQ2UPqrASjzroKyp0CEmA8H4SIEQA"},"ChIJq-MPFc6yzR0R1LrmWLHFqdM":{"geometry":{"location":{"lat":-33.95961080000001,"lng":18.7678426}},"id":"c744d91d177e74ceb21f858152e03b3b2247014f","place_id":"ChIJq-MPFc6yzR0R1LrmWLHFqdM","reference":"CmRSAAAAcLo0VQ2tsGKUMCMvcmPyx5KqrEfiQnjJRUAq3mNdirGdRf92Gc34tcrp-1qPEvRnHqpN9X0XAhKMuVs-EQ2KXIykk1RHbJiJEP_f8vWdx_2t8vzlwowKZvi9t1RZ4iXfEhBmsR4Ipq8DvXq2_nctEVzYGhRCMGGpSJLyjZaTqPxBfg9biP1ZYA"},"ChIJE11Vj1GtzR0RwbuK6NxPC18":{"geometry":{"location":{"lat":-33.910957,"lng":18.81586099999999}},"id":"11009ab5ded6beef72d4bc6a4bc5c061bf69e951","place_id":"ChIJE11Vj1GtzR0RwbuK6NxPC18","reference":"CmRRAAAAGeNgxldWuGSqrgS2iFA9CCkB5Z915b1OS6cA5U3we3gLTRm0NiROx9M7Nc75KQpIy8XX0c-R4w8crZfpoha9dJaYIMtkREA6CTBsamnCDj9EjksCTfniZvan-X2kroOREhDoyFmfM-TVlw1JTnHbPagBGhTq9vZiIA_NGNEh4ku4Qe6g-fOnwA"},"ChIJoanQL9y0zR0R-NydFomw4kQ":{"geometry":{"location":{"lat":-34.0399,"lng":18.82781}},"id":"c343d2b5b6a079a0a0167b4a7df1aa3eba2c4ec8","place_id":"ChIJoanQL9y0zR0R-NydFomw4kQ","reference":"CmRRAAAAbckRwKPxOpxT_Tr0uHSTqJWY9FdsU3biQPM8uIz8d9bUuKKGwSFfyyCiTBT1eZEnWlwM5Ha26BxjBb7GNyozklqan7on55hHjFV853RlNCualE4qIVylOu9i8n-T-wopEhB5tdf0LAFFJD_iPf1dCEuDGhR1c_QiXRJoX0zakX7rczZv_y4mSQ"},"ChIJ5ZYewCVSzB0Rp2krE9p3lRk":{"geometry":{"location":{"lat":-33.879866,"lng":18.763768}},"id":"91f1cc37df54884352f49ca5aa7cf31b5cbfb63b","place_id":"ChIJ5ZYewCVSzB0Rp2krE9p3lRk","reference":"CmRRAAAAp5trLLhKiyl_aYTsj3bJ44-bZaI19QSP-_UwMYnGnm-U1i7Phl-gQ6TybrjJoG-mubKcn4uiIwn1ZyAc7OjOk6_iAE1YqFeCbLLr8Nx_JiROh43UkJPe_dZfIWUTfp4fEhATbcBbLfMBhulxCRr31cxmGhStT2LxRhk8IEtc2ZDNOExDHt_ALg"},"ChIJb_fYuOqvzR0RVTymUd8-0F0":{"geometry":{"location":{"lat":-33.88510100000001,"lng":18.968314}},"id":"5a175877ae54c9b33197a5fdd520f723cdfbee66","place_id":"ChIJb_fYuOqvzR0RVTymUd8-0F0","reference":"CmRRAAAAN-Z73zvt0Km5N6Mvzkln8QKQfrD8UrEtKUPNYgnM2YqeSXX-FUi4qDVko9Ny2OKUCzKOyIHbsZGOZgOwbHO2yU1yu1yNMkoPDDOIbdFnR5ZhorvxCwZqHyUkX2dQtobhEhAUBfcW3wQcoX9Q7Fcp7RiYGhTkx3q1Bwje5h0ijy2o2bKJnxF6Fw"},"ChIJIzQ6mJC8zR0RfCMGvAfBk44":{"geometry":{"location":{"lat":-33.9046431,"lng":19.1022715}},"id":"89d8bfca7cdd57b755c4cfce483a957e59e43b85","place_id":"ChIJIzQ6mJC8zR0RfCMGvAfBk44","reference":"CmRSAAAAIR--hfHe5ME0vipWFungoTA644bMAMSYAm6iQtAE0XCCvoR3GwXrGHZHErRfYAUr55uXWg7M4Ft3yat2gGE_BP4zNHuH_eojq009TDE9RRVNvA8bEcDHZ31MLG3zHTz9EhBwEbPKndU9cYEP9SVtUEMoGhRxr7DdoBatcmocYVnyLSII4vlilg"},"ChIJP2pVyl2zzR0Rk-J7uLE3Uss":{"geometry":{"location":{"lat":-33.996266,"lng":18.828603}},"id":"f2c3591ddb461e06d3928c430fb9bd510e5e6b27","place_id":"ChIJP2pVyl2zzR0Rk-J7uLE3Uss","reference":"CmRSAAAASFDvQDneBMsDqSJqV9Iyfu6vyua_qkmsa8yXOCeI91Sthf5NXzmD2yXG6eI-6xseqjZEJdlrlpf7wAjGZv4YsgdUwuhQyzEF8ptZU7x60Iu_YZaw-Qw5v-Of1lECFp6aEhC70bhoAZSslZgnYQ0w8CeLGhTAkaskE_hrk9QxXTKcQPJn4n6JrQ"},"ChIJe-oIgaCszR0Rqtn4d54dW2Q":{"geometry":{"location":{"lat":-33.816522,"lng":18.8299872}},"id":"d82209196aee98f48542133ce2b47488de64b9e4","place_id":"ChIJe-oIgaCszR0Rqtn4d54dW2Q","reference":"CmRRAAAATwxdBmokh19WZYac2_7ck-8m3ABM_NoBMshWGkOJ3tJtkYrDdHTjc21MVVL13kTB5snY8WgxQbVXLJujPET_L4X17skkBEChW2b3764WTUJtR9reBKgq-JZxI_hU12HHEhBMJjuDV4SLIxU_zV4v82sQGhRgCsNO8CHNXo6MKqMfbpS-Ucm_rQ"},"ChIJGcrNcl-yzR0RrToxk63wgZw":{"geometry":{"location":{"lat":-33.937814,"lng":18.863523}},"id":"cb9bff1e2e3110bc56974b1dfc3ebea94d7d8b7d","place_id":"ChIJGcrNcl-yzR0RrToxk63wgZw","reference":"CmRSAAAA8-cfS1pK-0tI66lqH7WvG94ZimGuvs7OZO2Be9yw6JPJUGE2z2xIIh27bgs6N-is1iJ5PtxCzs1AxXLi9SVEnxqhEuo1l23sfSDKa0dKSk4fxeQLxdWVhid2NNBPL-t7EhD2Hp23qw3J5tsBENu0l7gNGhQ2CV97AjlEu76DmupvPu1ZgTYDLw"},"ChIJ3zMTwtj2zB0RbB_fBJ0C3Q8":{"geometry":{"location":{"lat":-33.7048597,"lng":18.5684921}},"id":"43eccd09356c51d9f7429b9f94e4a4000154e101","place_id":"ChIJ3zMTwtj2zB0RbB_fBJ0C3Q8","reference":"CmRRAAAA4Rp1Ov7pCpSd_D-j5xzcA0zz3XWGy_GKj5mrR3IiOLWV9q_asplWdAG8o_ciIsydLKAZbflffY7DsSMGWb6o_svOb3aNSgpunZrXmXELIW1TUTqTIe2GEs2rZjI9cqf8EhCY2DOSoheinhtvJ7OpjFNlGhSLIuFYKYJlb2HFii8qVXkQtbVlzw"},"ChIJzZ_07DG7zR0R69JdOeOV70M":{"geometry":{"location":{"lat":-33.886573,"lng":19.058532}},"id":"59d0a176a7bace50ff8301297badb8c66f2e01a8","place_id":"ChIJzZ_07DG7zR0R69JdOeOV70M","reference":"CmRRAAAApBOwd2ROZiKpubs8y4FTc1GppBbEy4TDOS-b7Y8xPW9WZUa_96tgqGBIMQL-RhR7-62cMGCF8Vy5zMTXnk6PACNtPCIFwi6lAXKtPRY2_1fKuidPlbtrfnkWPntG7gVWEhCdMxzvst89xwlFnMA-wgI5GhQmaYPx7v1LgnhywKZxE0fMFjYCsw"},"ChIJDdWqdZGzzR0RtOdTDsPj4JM":{"geometry":{"location":{"lat":-33.98240209999999,"lng":18.8716847}},"id":"91eb98a28fd832ebf051410695db51c010e72891","place_id":"ChIJDdWqdZGzzR0RtOdTDsPj4JM","reference":"CmRSAAAAMiqmVeKGNHC0hP9H5-Cel2oMe5Tm1hn_kT2m39n67tnCj79Z1MoMbyoAu-K3ii-u_5J_0J4X8A1mJTUcrtvTNTpVPY9sTsEUM8jZ5SWDDL1dv8eW77C70Q4VqIuZTprTEhBJDlPFdUq4iLI0NlAeKYFJGhSkPJDBYPQKAoKGKijH9omE6sdYiQ"},"ChIJIWJmkqRLzB0ROh4hxOt_lnY":{"geometry":{"location":{"lat":-34.0431699,"lng":18.75037}},"id":"ecffe08d140dac2e1ae9ffa036cc1395a5f697a9","place_id":"ChIJIWJmkqRLzB0ROh4hxOt_lnY","reference":"CmRRAAAAKX0wMsi3apPa3yic0CyKcImqtvKIpM-B4NaBsPMTxD_aFRRa8JMJaQiWCw75UgjQ0RYM8L2EgwenrOvwOrN8oby3ZX0ABw9ApLNSgmg3mfyDRZ4D6sfPy4xVYY6XzkV5EhClgnwd7_QP88FL4BY9E6jtGhRz-dYsKo-kz6k6fVzHeZavGYeiSw"},"ChIJiyIJE_xZzB0R1-PmKiTFidk":{"geometry":{"location":{"lat":-33.870332,"lng":18.8761506}},"id":"b5390b608563df4ef84eba0db7830b203c596c2b","place_id":"ChIJiyIJE_xZzB0R1-PmKiTFidk","reference":"CmRSAAAALAFSn7JI4n4kjzt7bHFoEB1NcDWgmujZezkPifIyp1YoqRrydwJaPIz7mvDcGa4stwCmxtpknImitaGw2wt9BmwXRSFvihHKIJTzqEGtiLPW7g4DKEeDkcHFKQWSWh3xEhBfOCyZw3Q_0bFpMKc8UUZsGhSPqgFjOwx6tU0Ql9SiZLKye_1L3Q"},"ChIJA_0t_cdZzB0RhSVEq0dhSBc":{"geometry":{"location":{"lat":-33.8347509,"lng":18.5933197}},"id":"85fec2469e15d4c88f4abb71ccbdb6255faa12fa","place_id":"ChIJA_0t_cdZzB0RhSVEq0dhSBc","reference":"CmRRAAAAm1wxItgcAOEKhU6VtP8gkoekeyQ1aa6jvJIGjTnPgecXcRT7zxfk1bUzAjuVjDIE4F_PUNMLXzIGSTpLvm0l65rCWLUF1Lg9PKsBXobwnMDCiQoGAt638LEh7CiSv6DaEhBHmlqX6_aQe9-gw9TzxNDrGhSr0lNkCGcY_Wl3f0fnFsX_HVAEAQ"},"ChIJX-zNN_u1zR0RpnP6xojzcjM":{"geometry":{"location":{"lat":-34.07190629999999,"lng":18.88862079999999}},"id":"e02745d30b127ed230aa856b7e86bb7aa92f3493","place_id":"ChIJX-zNN_u1zR0RpnP6xojzcjM","reference":"CmRRAAAAVqgIfpMXy26P46HlLa7rxAO91dFQ6CX2O7xb0b4fK6SE0LMujqf14CXWt9mFG7aVpPbadpW-diWp4-1twfBxtsErQQepSm1l8MzHtWGqSN_S08Y7aKK1-F7LKjKk1anzEhDJ5jBqkudx4aLZplhMNuSOGhRo7z0sfchm7dfEuXzFLdLc9GtX-A"},"ChIJyzLBkCxYzB0R33-poH7V_Gw":{"geometry":{"location":{"lat":-33.819991,"lng":18.610621}},"id":"53f1f2a4fd4b668e5b721619ebaf4b0f0869092a","place_id":"ChIJyzLBkCxYzB0R33-poH7V_Gw","reference":"CmRRAAAAqFAk5hKGjPl8VoZE1Yx4CHZta2ux6ZDOeY4zWq3oPiLkAds8k8BLMVCTF-jSfsBRjMqa7VtmiDIgfnxL4nsSbvBtnhCQcs8AWNt0QGVQgjQorKOeEV5Hr1Hn6JvrW6WqEhAmTbihOIkSIVkE9M_E6I3IGhSws89wgz55PuMRAZqEkHohqJ8BeQ"},"ChIJoUEowlZYzB0RUAEzoVxzAzc":{"geometry":{"location":{"lat":-33.820319,"lng":18.574662}},"id":"87ebc9ae843e73ecfda7d02c2713a6afeebf5b33","place_id":"ChIJoUEowlZYzB0RUAEzoVxzAzc","reference":"CmRRAAAAzg90qyazPxc1KO-DEApR27ViPmPmDzpAUDOMgzivQF11eJTpG1ilM-VrhTyj3zq91PyLuQSJZhl79KypejiHm5EvP_lOz79vNFNtMF4034Ds4H-8ISs-wHeZb8B4P9AeEhDohrHXoboWRm3TRTC_4fw2GhQN6pSN6LoIWtjaUXzcrfYZc46r4Q"},"ChIJ8Z6n9IdMzB0RuMobGRaOKVg":{"geometry":{"location":{"lat":-34.00411560000001,"lng":18.7604627}},"id":"9b6479a02864d99535f4d20d2bb873738708d70c","place_id":"ChIJ8Z6n9IdMzB0RuMobGRaOKVg","reference":"CmRRAAAAebYrWRV4KMqi5jMpBwj5SGd_lsiu_Yau4KHA3GrZPE7U537tVf0dJD8tjHoGuyeH_478soGg70gYbob02z_owCsOYPtDhH9Pdsxsx2gBmh6K5xIauW2wvJe-YhAR3lcnEhB6xhE0Y2kZ4_-DrrOF99doGhTtUxUK3njE3z132nf0FGeO3ndxog"},"ChIJsauT1kulzR0RqyCsyBqPTbk":{"geometry":{"location":{"lat":-33.8723073,"lng":18.9988188}},"id":"e4dfc1fb79647f7e33b14ee6e3673a87448bff21","place_id":"ChIJsauT1kulzR0RqyCsyBqPTbk","reference":"CmRSAAAAieKxRk3UDQRlQf3-nG0zWYsBr0y32BBK-Z07df-ZQ0SelDc618LPjEK3tFPDZ6Q0i5QuqQMXasaYjZ0NoPkYFiaLpd7EiFVGXNw7UFDi5DefsJx1-CVl42aPpjgxIv6MEhAKS-nWKBWslQeH2H03aV8oGhSU5JYtZoPJNlU5xtTcrdTUNer6Jw"},"ChIJYXsHyzdSzB0RFQIsfALTVcE":{"geometry":{"location":{"lat":-33.89674,"lng":18.73507}},"id":"9da44949b9e2168634a445fecc8043dae5880317","place_id":"ChIJYXsHyzdSzB0RFQIsfALTVcE","reference":"CmRSAAAA9D2YKJk9y-00OgmYIirKr1U8Gzykk4wtiDEibvnPohmnXRi5vsWm-99tSk8-wRkY_DLVgqYa5jT2zmbWqna9edtr8n8PJtjx5oKYst2tzr2s9CAjA8-26kLuOHRclAHKEhD73r-zynraKjJ8LA69ghtnGhSsCLOI08ydGQchQVmFnVEJc0n9Zw"},"ChIJzxOZlRfKzR0RLPvYwtEU8w4":{"geometry":{"location":{"lat":-34.0988621,"lng":18.8895607}},"id":"9d414fc5a7786be4ccd75701eabda5a7a2eeeab7","place_id":"ChIJzxOZlRfKzR0RLPvYwtEU8w4","reference":"CmRRAAAA-e7iqqkzSxmqlRW4XgBrwCcwNV4Vc5Nq0Y2PJak9Qn2M9A47s2oi8r_Hy51GuE1OZABUtinqL7IHz7UeeUlENV5vsIVwxt7_lTwkItEYhxcryhJ02dJnaIa1vK3WO-UQEhAeMv67sevF1g-gYmjhaJ-_GhRPnOGTZhm5ci5C2mtZ3xP-3svIlA"},"ChIJW8PsPbqtzR0RSTQj466hyPQ":{"geometry":{"location":{"lat":-33.879426,"lng":18.871423}},"id":"22bb9781f68ce7f3f58238b62a75e24b1efc2782","place_id":"ChIJW8PsPbqtzR0RSTQj466hyPQ","reference":"CmRSAAAADvHAvsoHTMDty3AuD8c6W-kW2WLHFff9VErd676irwckJeEbUHLv49r7zeY3H1qOVpUPxtZz7bZyDYxGv-KfCuAoXf_Z3cnXoFj8egmSwOqWrvvvAefLNEQDUSl1YyKiEhA6q6OAtuHgYwnl6QKHQhCfGhT4DdKevBAqz4Y6yB4LpZL62cLryQ"},"ChIJRcy_hA6zzR0RuURiRYxBOAI":{"geometry":{"location":{"lat":-33.970128,"lng":18.845243}},"id":"f20e6724f1f87be156ee8d93bea28570000ed6cd","place_id":"ChIJRcy_hA6zzR0RuURiRYxBOAI","reference":"CmRRAAAAzbbI2vjg2E1Bai80jPw15BDNO7D-gQzcoLALtRSkC-CQa0cMKM_gt4OstDd3OPFx2WOdgagmsZZALnjBOP3pLmLmgssTphx-SNFreZ6wiDJo4fiEuFTKE32jNCUGoYC4EhDHEBHzNz3gmJKF27DZ6VxbGhRpO0wXqOk11fG_REONpX7Xlaa6vg"},"ChIJ_yAeaYmzzR0RJGEnN6SDxeY":{"geometry":{"location":{"lat":-33.992263,"lng":18.871849}},"id":"82c112c9ffdda7a4a1c6db4275b4edac0972111a","place_id":"ChIJ_yAeaYmzzR0RJGEnN6SDxeY","reference":"CmRSAAAAa4MSE8bM1dIn9vMt2UPuz8cCFfvlDrMUIkUfch_8lLXaV_rTAQbM3r6TxCvPUy_Yo-NqoNFRHoJqpSu-3-Vh9hwlTYZeNSwm0qw1wmCHQImgNgeOnNWMnBoQ_PyYS4l0EhDOu5JxnKU2orXLdlKJWTXfGhR5BGdujToZa29BqENTV4rXaxS0gg"},"ChIJ0YWiZNLFzR0R6eQeC4WaNzw":{"geometry":{"location":{"lat":-34.1550536,"lng":19.046181}},"id":"985d641b21498ea10b17a526adf752f0e142ed1f","place_id":"ChIJ0YWiZNLFzR0R6eQeC4WaNzw","reference":"CmRRAAAA5igLcmfPpk_o0O0olIqZHj_oRv8f5x3XzY84-xQKZ-uyrtTSxOniF_Kc5EKCyJ9ECQue1ZEkZS_pQU1BR0Kun79QOzvS5_8yDuhSzAw9--aMWdeYm-j12c7EeOoFcn9hEhBofUZd75gikFJ5ZqW5_XjNGhTJdsSb_k86-AyQA8Deg4LG8oEE_A"},"ChIJEVgwpAbfzR0RoYR7zm6jycw":{"geometry":{"location":{"lat":-34.345893,"lng":19.137862}},"id":"7969c267f505e6d8294bdc4dc0b7a32d2fb73f14","place_id":"ChIJEVgwpAbfzR0RoYR7zm6jycw","reference":"CmRSAAAAMX-DM5GOURYYoMGja4_8NbauSNd7LKZY-SqRg_DXrhw182FUMn5C5SWhWATWKZk1S-iwNYQrVgcmXl_O1wppbKORKwGoqxa_A5tRaU1qwJgGCGbWsjCZuhy7xGel9t4JEhBkapHjlqgENm8lS_6dneKCGhQxaXU8ETW8sBIjK6NG5g_y6ETPmw"},"ChIJE_Yw4RqszR0Rr21MmQUkBG0":{"geometry":{"location":{"lat":-33.82985459999999,"lng":18.8798188}},"id":"f9c6e8acda4f0c858252ec623931f7d966a1bbbd","place_id":"ChIJE_Yw4RqszR0Rr21MmQUkBG0","reference":"CmRRAAAAVyhvFpqVMrFfRUV_Edabp8c52kNt5pnJ3e0rGPgWXt94-EbB5Qpk-aOPFL3HiQQP4tBvtzu656X1zDeeLe54NuoAmKNuLBy7n-pRdva25V2KhvzPCyVPOirxmrNoazp-EhDmmj0e6N333Fro4mOJQSsrGhRgwA2iZCYLGp1ENHCly2sBSAX4AA"},"ChIJYYBvB3hMzB0RtQRYwFvrzGk":{"geometry":{"location":{"lat":-34.0170159,"lng":18.7571449}},"id":"782332911581fa4679d91ec270ef81f01382ac0e","place_id":"ChIJYYBvB3hMzB0RtQRYwFvrzGk","reference":"CmRRAAAA1-mSodbiwoB839WBFoE6MdU1qu7j9RAucws_63HqFDC91V35MSVCjv-9UH4PD88tcwG9MldbjGn5xmdv76pnT5PAScq_P3-WBWnE0OP0uLMAGSLS-VcDVwD2JLBOBL7NEhAtO8OHRC2qxkIWcyAmUJKzGhQZ6_raMWKqsrmg8rhzqBI2QwyPQA"},"ChIJvYCDpzzFzR0RRvpASYUuNQQ":{"geometry":{"location":{"lat":-34.211731,"lng":19.032526}},"id":"0bf8f385768849a4e2fa8557b26a870adccd5372","place_id":"ChIJvYCDpzzFzR0RRvpASYUuNQQ","reference":"CmRRAAAAuSe84T9_-rtc66szax9DV-he-ua06Ggem725Uy9FXqz364RggXmTN0ZpSOZv4OuQcrqsa2WvxcItyg3UfDwxmP_35q2abZTTFqLnc6Gkvp5GE8U2C-CAxzO07jynhQoxEhB8A9Ai4vzPiYhT_WVaKHxHGhS1ep0PGUUfVZXwYlbo6yXTDdqlsQ"},"ChIJD18CNNu0zR0R0qeHbSHoN-A":{"geometry":{"location":{"lat":-34.0130818,"lng":18.82334029999999}},"id":"51d0802ccf534a91ebc20ec3daa073ac46c5ced1","place_id":"ChIJD18CNNu0zR0R0qeHbSHoN-A","reference":"CmRSAAAAI70VSYoDkfk-oq9ApJSdA8IwY9s2I1YVfnIq0d2i0lPB054uta_z7fcjPCzewHPR14vBRR4Ot1uNcUHxs47ElWx5dFiHF7nEjJ0sc9A6abrv_ZuxXuqPElF7IllZzbEmEhC9vukPmd2633niJ3E33cnSGhRcdAMZzQ9mRlLupkyFAU91poNGnQ"},"ChIJAQAAAByyzR0RT-hoZGJUuGo":{"geometry":{"location":{"lat":-33.9145313,"lng":18.9355186}},"id":"cafbba269af9806bec4568ed99f906604ee3b8a1","place_id":"ChIJAQAAAByyzR0RT-hoZGJUuGo","reference":"CmRRAAAAtUDHydNvz4ZPx9y-TaTCrJ3-Bgr-r7eYRxAqZ7i0peCMh3NlICHjhlbKdBuXA_2UghtvVBx7hMjs_uyd_RTBXhvCjMPA_WhYwQP_TPmL8zxHreXPtUsJoFhZWksMEdXQEhBX7pGIPuCyNFQi-M4lIrokGhTx0dypZZtkB8DmBwrm84OvJ3zPOA"},"ChIJZ2H7c4a1zR0RA8-3KEsQLTY":{"geometry":{"location":{"lat":-34.0763946,"lng":18.8898868}},"id":"0c8be494c3c7fced3af08804ceb16af90dd189fe","place_id":"ChIJZ2H7c4a1zR0RA8-3KEsQLTY","reference":"CmRRAAAAM8qA8h_k_rZdGXwghNtbzdMtM2uDUQ4dTXDjXwr4v3RMZsuOVAlS54Cs0-DxNuMSDTse816uzvdtn9OvFEoimlALFiI5q94MA9YyafNHc3NifFmsJJ6XlVjw-it3GP9IEhCbiu5NlaT3f6LZb9iMkPgwGhSPfWi-PoEzaTylUZvT2Q3vR2pBaw"},"ChIJfXlmsoO0zR0RKZzHmT0bH6Y":{"geometry":{"location":{"lat":-34.00283,"lng":18.847002}},"id":"c09265ec038aac163fb7901d0376bcab4c54b104","place_id":"ChIJfXlmsoO0zR0RKZzHmT0bH6Y","reference":"CmRSAAAANpR6OnN2KkXp8YtiHLDnMOuKxekjP_wXy2hcgMggb5931c7HwRhf_I0xrfLavQHb5u3dyx2B8_fD2ach3g_LNFsjYJpOlqfukxmSABoE7L5GHpqo8BIdYLWdvkWkCAQeEhCknD4F7RIAHRurRY6D5gfAGhQ1BqcFdp0Rq50KNzzCnOL0PpAd-Q"},"ChIJyYB4aXQKzh0RdKxPwuxg4Qc":{"geometry":{"location":{"lat":-34.367191,"lng":19.255214}},"id":"2c394e3b45a50e0c1e623abf1312be276dc3d07a","place_id":"ChIJyYB4aXQKzh0RdKxPwuxg4Qc","reference":"CmRRAAAA6WJYzuwmmXwMgQffaT1AWioj5tq3rJRHjVnOgY343x_Z_j3XXKzFChKXEBbpjjasF1dkU2dGo9MD1y875XPBj-ZB_VvcAFArGxq9VmHuwpHC4kNxAW0YoglXnJo6fPuPEhA7113Jq5i8eK-8djxhdEwUGhRh9X8gp4ESp9ZEXgbQGi8nOQwiiA"},"ChIJl6qqqhq9zR0RL6K-moe0xVs":{"geometry":{"location":{"lat":-33.9343417,"lng":19.1139479}},"id":"2acd696a14fed560328258eb84b7df89ea260d8d","place_id":"ChIJl6qqqhq9zR0RL6K-moe0xVs","reference":"CmRRAAAAN15ZIbs8eokAb9YhGg3sGB9eFp6f8r-fJhoxeKUi32BHXfTXvKnF4HoCXa5ulD505yrXrXeUj5J8x6WK9dIvP6WhC4kW7qjnUCdoBYH0Wu_Plym9HaSA1l9TIPXszPykEhC_DmZXXIV2d7E6UsIjuElcGhTCl4zA9_u5pmhb_qwMV6wrvTw-7Q"},"ChIJY5EwkCywzR0R2ZX94Bh_LLI":{"geometry":{"location":{"lat":-33.9374548,"lng":18.9447819}},"id":"f1a704dd330bbf3f3c14443d5b45696740961dc0","place_id":"ChIJY5EwkCywzR0R2ZX94Bh_LLI","reference":"CmRSAAAAb6GfUqbJuWtgTEoSryEWZyB-GnCfraYFzyQF2HGd_6294Zf9n2IMzYJuOD4-iALz0fxCwQftDie6P1v9xmkel23QxzkagBoPB0MEEuMm8Eero_OdWs-v24UUIK3sDjHmEhCvZo0HqXTWCSwHd0ZhzSDcGhQLvXbUd1YRiq8QEwabvVoVSLfqVg"},"ChIJMWIHXcyyzR0Rfx6H4JpNTGA":{"geometry":{"location":{"lat":-33.9494643,"lng":18.8125342}},"id":"237ceb3f61893d9905e4f2618bf92bef7981baea","place_id":"ChIJMWIHXcyyzR0Rfx6H4JpNTGA","reference":"CmRRAAAARDJ4rf8YcVpyDws1KLBtQ6hWE1RXCy28q9xqPtPqxoRATO17LfcN1TZvfaxejSm8APCKW0Wxc2PvKPox96Q7BRBMkt1gMtKFFvMrhV-Po2ScO7mmirH0_TbBLwwj0ldlEhC44A2WbaMDkXY-G92tcHMhGhTJhn5n-kzuY0zH7D47-MvU6_l5BA"},"ChIJTUupeEm7zR0ReL82qZCDqDI":{"geometry":{"location":{"lat":-33.8836974,"lng":19.07216099999999}},"id":"be0820472f34f5fbe94dd06ed4c7362b7d4357fb","place_id":"ChIJTUupeEm7zR0ReL82qZCDqDI","reference":"CmRRAAAA9xPZ5zugoEP7pkbpldCBMzuXmHWa8vJo3VJiabVHur2__S3QyrHJYP04HcFhugUj0V-msKy7ALFaz-uXTXlRqsupASR6uIl-6pi5qelKGHTUL0PStbsy3MUKB2j_X7DoEhCtmKZ7PLA1CdQ0pRBxKg9BGhSiBD1ZxJh1mCfOdOJTfqvuF-0L_g"},"ChIJEXoUs9ppzB0RzHENeddpBUY":{"geometry":{"location":{"lat":-34.0267362,"lng":18.4247304}},"id":"749b55debe42a94d46d29c95faf9eeb44970bc8c","place_id":"ChIJEXoUs9ppzB0RzHENeddpBUY","reference":"CmRRAAAAnU2DoJUcotkz5heyfVYt2iSTwzjKq6XzLGjcQD_lSN5StxxR0IFo14KkNWsviCkrnOVurTo3UdTBHBZWBk4F6c_8FUdCF3IBoaJJertHw17l0j3lFUTRRX745idos3RcEhBWAH8a6xaOLwlQdF7UqqVXGhSjstttoGYhmGhCmThJuP3Xj0_Q9A"},"ChIJI93jD2uszR0R8cfBCHWX5rg":{"geometry":{"location":{"lat":-33.84186,"lng":18.87597999999999}},"id":"7d4abc80fb428dc7088bdf1ae6adb1cf5582e408","place_id":"ChIJI93jD2uszR0R8cfBCHWX5rg","reference":"CmRSAAAAPK1HjCohMJ2k-CAE36rHu3IaSdKEt8HfVYjLey0Mi90BCseArWy-qOPflYEfPfhK0BYaIS9-8oChp2nvV5C4se-QEqUqwQl5IWYYn7PLuz9Xuf4F9IJHHrxtWPzNiY8FEhCpqO1UiixNTeEAvzq11J8kGhRK7CQBKnMVFfV1QE35hj9u9x5S8Q"},"ChIJAzp1dFmszR0RhekYH-fu1QY":{"geometry":{"location":{"lat":-33.8551851,"lng":18.8601279}},"id":"3b20f6ca4a189223278f3949a88fe71ab6886665","place_id":"ChIJAzp1dFmszR0RhekYH-fu1QY","reference":"CmRRAAAAnNoIvy7biTcB8kU5RCFMEAMU8eefMMlEkFMVPM-0JeGcziuIKVMxXwoNFbXiQDtFq0kaGoI-cmw7HVl8No8AvXaUIz4Y8Gk7vuLOzBYGFpK4drHmOV4vheM6Atnd2uH4EhCzAasC3AMSWDRMDYmHk4PUGhRTklpvagWMr0aH5mTLjNLc7J88zw"},"ChIJIWzvGOuxzR0RajTZDA-pb0E":{"geometry":{"location":{"lat":-33.921626,"lng":18.923115}},"id":"5da1abe354fc05e43066fa4fc258c07eb8307dd8","place_id":"ChIJIWzvGOuxzR0RajTZDA-pb0E","reference":"CmRRAAAA-BjLiTDimIJGxMeLmhl579EmMq0ou4QiRRTCPLBIbZ0GPwtYEQQ96vfb-bcULT9FnIrWylChlXXv47SpDjMaJU9z-WAw4gzNEis1IZb_hv886Jy4e0Ta2w4BX-5bg8mEEhBQSh3XK7cIFPZKWBWKobHPGhQVsTm4LWDeFxDeuieBGg9kvoRibQ"},"ChIJOySTK4IIzR0RhaLeTQLD9Oc":{"geometry":{"location":{"lat":-33.66156359999999,"lng":19.0069902}},"id":"aeb6d1a2b3d195ded237410264e3dfa78db5051b","place_id":"ChIJOySTK4IIzR0RhaLeTQLD9Oc","reference":"CmRSAAAA9zuCFprgVl_-vHMWZAWBO-4L9lmtCeIbnzX8_NhD96aDRjrpDADc2lzV9n-cAZhpDISKUYO2FqUrZvpDnkviB8TfIczhObr1I4BtKK73zT5EcKs_6IQB38kqhprEVBApEhC5AKh8DlyhjUGgcLhYymHjGhSPbrvZcxqXU1nbo8bUed8F1QWPVQ"},"ChIJFyc4R5a0zR0RVEw-FtibG-4":{"geometry":{"location":{"lat":-34.016526,"lng":18.832969}},"id":"a0c3d172fc7836be1dc4fa0bc7f5571d1989b897","place_id":"ChIJFyc4R5a0zR0RVEw-FtibG-4","reference":"CmRSAAAAsHg-joEWs0et7PSuZ06IczTHoBGBvQ2dj0aBJ1Zl-KLTsm3v2KTihlFpPktW_1deuzKPEOZ-ca494x_eo09BHsCTcdyjrKuIK-JrPFN8P1IRIwcs9Rf5GcRM_Q3mhVomEhDHosR_AN6TdncH37tMtBCaGhSvE8hCUV1PbGh0yb76ZrJ449FCCQ"},"ChIJEQa6THa0zR0R--4CKVRFrMw":{"geometry":{"location":{"lat":-33.99530300000001,"lng":18.870639}},"id":"9f27e35c81f8e1fcdc0dd5e377717d6026d71ac1","place_id":"ChIJEQa6THa0zR0R--4CKVRFrMw","reference":"CmRSAAAAJLqFaro3dEF9qKopBh0HHnwr_0MTCtBVEIjakhSNMx5ZWqXI4nyYw49bcEK0V3cLB9FNcPZBTbtGlPVgp6Yn7xx60wAR3n_iJkVaIN05s9eQ-IvHZ0KXE2XHelWhe0AtEhBLpz0A1hrS14wSWfFRWsZJGhTHs4PWpca7g9IhIERLD2ssNXtQNw"},"ChIJE-MlUpavzR0Rd2-jSNrCat8":{"geometry":{"location":{"lat":-33.858653,"lng":18.9862582}},"id":"9a1e9b558d1ad2702544dbab1f031650c2a2457b","place_id":"ChIJE-MlUpavzR0Rd2-jSNrCat8","reference":"CmRSAAAA3rWmyUZFfDA1tKW70l-dhGGlf_gqF2W5Lcw32qxuLvI5byD_C5OAnkufSffodAqOQGAT7RBYCTlAuf1FruFunEKS8xve8iyJLK-9tB_8daZxpDIA_IHNHCdK5LI3IQCREhDTjVBOttbpg3v8iR5K-Y8YGhRaMw4DE5tKqL4blqn2gadPD9UX-g"},"ChIJs94exLlMzB0R7ESjXNmRhhs":{"geometry":{"location":{"lat":-34.0057747,"lng":18.8430415}},"id":"0c2ae51381d32a3338563770306e8f2e2a6ddc4b","place_id":"ChIJs94exLlMzB0R7ESjXNmRhhs","reference":"CmRRAAAAR2ENZMmOtVOdKIrlPOMRvnOiTJhNNcnJX1IQeqxhjk-3PBb1tOy3dbsgqeR19We3gM2eH-hOeAeZTPwzHmxJCf8oKxjjR-YrnmqWlbakzpAAUL99o7lZijARr-4dn2HHEhCOv6Oga4jHhHGr4EtEZn__GhRUKG8X7r2lFAxqQAoclFKJaSe8eA"},"ChIJZcZiPd1NzB0RBWJJ9FIaGQk":{"geometry":{"location":{"lat":-33.9467554,"lng":18.7190938}},"id":"9db20d3f77c9e17b4342f6f9ab50e71ffd08fb2b","place_id":"ChIJZcZiPd1NzB0RBWJJ9FIaGQk","reference":"CmRRAAAAeq58xtEtjHIY_V4XRK8fajPv48xHyrn5RQSTUb2XuQKa6VWklI_rRwzPC4bNmFVh-0vsOqnERMnTyhySneRqnE37nsLUZ3_8GzuLNYdFas8PG3BMLlQWWJC9icZeUZMcEhALOptGMlDpgJJh55m-b3dxGhR6AXceSB9dyUhUD247JAWxRPligA"},"ChIJfzKu7VtXzB0R9sepIOCnAMg":{"geometry":{"location":{"lat":-33.84743199999999,"lng":18.6246425}},"id":"c50d2397f0ed5dc9efe1a1aac5e9eb06271f4e11","place_id":"ChIJfzKu7VtXzB0R9sepIOCnAMg","reference":"CmRSAAAAlnA2-47XMyJ2YGEoBwHL6Rsr7PiJpC2wLGIoVfu1zKgjWxd9L0XWKsVhapnYVeaqsD2xncJuEmwcffMKCmuU7xyWIBLDtHHlnf7ixjWfpOeEag7SOKiIM7F3YQ_9S-J_EhAPOeT7ibCGEvWL3GFvDBi7GhR5wj6WMMHpWoygwGbeMEgFiY9nEA"},"ChIJnW1HS8a0zR0RBPSv8-ooSCo":{"geometry":{"location":{"lat":-34.027481,"lng":18.821382}},"id":"0b6ae8f491a8d8fd5f08b37f9c5ffb7a49335486","place_id":"ChIJnW1HS8a0zR0RBPSv8-ooSCo","reference":"CmRRAAAAXfHFbgGc44vdEzym8AcvZR4quNRHqPbb8_YB_gEMOx6TqkDMBBqPSTTNjY54eIqlR_XAd5ZosCK8IM9MaHNFF3AXb7eokL34jVVEb14NwRCemNnGB0dg8jxUIO67W-aWEhDfnG_wtFF99ROpeGvglTzfGhTz_s9YFXIp6ujLn_z8ndPY7LRu7w"},"ChIJ5TjVz91ZzB0RQ_2sDAvEezM":{"geometry":{"location":{"lat":-33.8411284,"lng":18.6108763}},"id":"8db00584a4344c102c2e0a80b0b31dc6d07378d6","place_id":"ChIJ5TjVz91ZzB0RQ_2sDAvEezM","reference":"CmRRAAAAkssVQ5BKKtN-gPJH2WT-Cie-NJiohHm-v65axrClgktHKJ-hiB9UdDSlcJxuI3hUQbSadJpXVYObDVIdPmIAvEKlqf2AuTeoPn5UGj4pGVq7zLYBUWqBWTZ5k9rzqwrfEhCdMYa5KnYOC5crXMjVDVWuGhQtk9bGNLm4yygxvDRVP1vKZq2ZUg"},"ChIJ6UwkCbvFzR0RA6dE-IuB87Y":{"geometry":{"location":{"lat":-34.17236369999999,"lng":19.0287945}},"id":"5d985392e63a3fc058557d9283e71a2935f64cca","place_id":"ChIJ6UwkCbvFzR0RA6dE-IuB87Y","reference":"CmRSAAAAOcJRof04cAsDcA3FObwoF-XCXMn5EeuM_O8RlIXd735Fh3-Bq9MMv7tN745Bwo2Xm5nLAdMOVhJG5DsTvvPawGuAjKtmcVW5VE1jGWcmnsdgKQE5xwU1w6HHN11-1F_xEhCM7tADlP0EpFgOAJLvq3dmGhRDYxRFXbxtKjoZSjzfsiEkIvm6vA"},"ChIJ1wefLZmtzR0ROl_Q9pHfnd4":{"geometry":{"location":{"lat":-33.893421,"lng":18.8612878}},"id":"f3a0f18a05a6693b71d2090c45d5b214c8b91c6c","place_id":"ChIJ1wefLZmtzR0ROl_Q9pHfnd4","reference":"CmRSAAAAT7VVQHr249ATzYh0FBE9jzLYA3tLip1pjKAHqyycqbzUjcMs9_jfJTTajpcEVYkhNGGe6P9I8mW2-qFmpIvhkLm9z0RGt8BSZWd16aPTmSTkryesCVumIR_QmbohOCXtEhDkUQogMwBYd-ViU7UkiJ_eGhTNCiS5RVJn4Eci1XuQ1nT2erbTRw"},"ChIJkykNsl6yzR0RoiCGYo9i8SE":{"geometry":{"location":{"lat":-33.9263158,"lng":18.9324205}},"id":"c68a807b88c9607b0fe4966bf0b15f7b74366c36","place_id":"ChIJkykNsl6yzR0RoiCGYo9i8SE","reference":"CmRRAAAA5BwtEVn4REnYk7sHoGNUgBuPW61taRYa4Iep2hb_7yo2j1I_kPR_sSaGWG9J41aGUHGoabq3c6Ql-HzJYc4UjQxzAiKTrWtERkpAJoQgDog4JIm9KF1qk8yxHMS0zlWQEhAI980-RkI7QjGZeKVdwrr8GhSQyoZMV63cF6huC7RIZnUC9kZAlg"},"ChIJUd1jCo7bzR0R8Il6IxT05LI":{"geometry":{"location":{"lat":-34.27871099999999,"lng":19.0826924}},"id":"8237d2965dbe27a17a4feb7fe510bf0277aa41dd","place_id":"ChIJUd1jCo7bzR0R8Il6IxT05LI","reference":"CmRSAAAAwpYaf__gcP9sgnqZwtPRHzd2uCehrQPY9dlK5WcgUIX1_Vmt4egggH8ZFkzT5wuQsOAlVdqwIVBjmzpwPFNcZE7aoVToq866_HYXsSBqO99E7x83doXC0C0PYgTfa2SvEhAwZpfNkqkAhYmtrPDZL7oJGhTfNZqaA9nmRj0dYqxthZRv5n7MnA"},"ChIJH1VNJ1OrzR0R4DFNWY29m0c":{"geometry":{"location":{"lat":-33.8247982,"lng":18.8125928}},"id":"0113a7ec0d1259defb2f4f317d750577629e95fb","place_id":"ChIJH1VNJ1OrzR0R4DFNWY29m0c","reference":"CmRRAAAA5_AFwULyON3aZ-InkjrdscFLtOS2VeqMdXcCrYy18dtHUayvTpin92-VyHu89S3xEiK6qj4p0-0B57ErguQqjsIsXrjUAOB1yRjipC5YgPkzTmaeZafwX6zmqcyD6P-QEhC6eRPzHkSumhVz-yOOVk-UGhT1TXnRqc1NwUurwBkD0mLy_aVzTQ"},"ChIJb-MRKF6zzR0R98OI8srcFuI":{"geometry":{"location":{"lat":-34.00084599999999,"lng":18.839181}},"id":"ba2bfa88e509853266af1149c019a2fbafa5c54f","place_id":"ChIJb-MRKF6zzR0R98OI8srcFuI","reference":"CmRSAAAAraEgP12dYCnd8zBmD8EkcWw15vG2B__5feLO5QdmsAlSilWzFPXbbFiuWN0fw4jcMvB90-hLpWYUjS81wUgQ_nifVEsgSs0BcyRR4HfyDls9wovDfDNDHKM4KcKbnc8XEhCQcfJReiXhN4Cw_X8mGKknGhTdK3Dz9xGMZ46kKr26azE7WDllIg"},"ChIJZ7UG_OEGzR0Rz8_JWoBP2-c":{"geometry":{"location":{"lat":-33.6772314,"lng":18.9336116}},"id":"2b371e1efc7c23ab49128513f0fda923b4a0d7ee","place_id":"ChIJZ7UG_OEGzR0Rz8_JWoBP2-c","reference":"CmRSAAAAqVI31xM6cwM4FqzETzVt8dv0JVoaVcDeQvG6nRqGNlm3PpFnssOOQjsu1IpCj2AeYexYXuA-Q6qU0zK2W3UgX4B9gJrYjojkh5lQq7D1k7f-H7kYja3O3eEj36AUfYaHEhCrRrE6_sT0P6O-ZcV66QXMGhQss-MzZiwsPzp4l0krylYkbh9AyA"},"ChIJDWDLV2BNzB0RFzgPOXO_8lo":{"geometry":{"location":{"lat":-33.9268746,"lng":18.7814498}},"id":"2539c203413c71d20923985fc05bf6ab881817e3","place_id":"ChIJDWDLV2BNzB0RFzgPOXO_8lo","reference":"CmRRAAAAmX4hUw8iJ-xxp-eI5eF-wmuFDdpILSrE6oJgFhAe35bbZBfkJm_GSKw6P8iMPUbXtmQFwNNRMvaxn7dUjy5ZSdvbGlPZqk6PQvrhcm2QDYiOx8LcCvzra91coaViQ9h9EhABC2a_2ZprRe6pdZPaaTUlGhRI0h5FKePL--ip2ps-KXyPxWyNJQ"},"ChIJCQG2WSZYzB0RqruVojXAnLE":{"geometry":{"location":{"lat":-33.808035,"lng":18.613758}},"id":"0cd2bc51c15b563a86feebaba894f98e6528235d","place_id":"ChIJCQG2WSZYzB0RqruVojXAnLE","reference":"CmRSAAAADQsbFgKDJad8yoAvbF264-HywY7_nZbwxZdsZrkStwRCwlw6dgYNZYGEo11KijQ3Vft79m_1KpoXpD5dndysQ1e5iqI2imQPW16tIwl2DLfrHXBKdsyxjUB9r43NQD-KEhA1GNy4vGYfQdi_hSE-_ZEQGhT90YKjrw7COX9DxFAR6Y8cRhWrcQ"},"ChIJP4beh8SvzR0Rt-O-rlNLRbc":{"geometry":{"location":{"lat":-33.8814799,"lng":18.96733}},"id":"55f6e6eabd3658b9e6f45976e16c57dc9d8221b7","place_id":"ChIJP4beh8SvzR0Rt-O-rlNLRbc","reference":"CmRSAAAAC581Y-FhSPTGBr_DPxuaOuN4raTQW57Mr5cPHOv10rnoGYSABpCf6SDolS0CmA1P1I8xpjoYA7QDRmKhVrOa2QVt9Ensbbpqm8Tlt5lE0TX4q-1t60RLXPoORiy9wHRREhAsiV8I0nMBKKwzhOyDf1cMGhRwAustbKUI34TWavIvAAoZptcqlA"},"ChIJ0ZtvqixYzB0RTsR0x7eGYs4":{"geometry":{"location":{"lat":-33.820151,"lng":18.610905}},"id":"d6f3de8a3cbe45fa6bbf5bd4e0820cac97e8fd57","place_id":"ChIJ0ZtvqixYzB0RTsR0x7eGYs4","reference":"CmRSAAAA8GYNZx92plQPbCb3Z360esCcv7kesMKVr8c_dsAJqi2-L_jz-EsmaL4M_9V1cBpCNO0KsK1wuBjXdmC4QptV1T0ZPX2Ku8HUelzT_huoDvi55aIZklTp5h5ca5QAep78EhCpSBhWOYfKFtDbN_I0WDeFGhQyd8NXCJ13kBkhe8VjVbkDzWVkwA"},"ChIJtUa17o60zR0RXAfvm53wMKo":{"geometry":{"location":{"lat":-34.014214,"lng":18.847346}},"id":"bbd92334d25e2e234bf8f9b97da0099523d65bb7","place_id":"ChIJtUa17o60zR0RXAfvm53wMKo","reference":"CmRSAAAAZ9KvhXAb7k4BMV1QIHujJZaU6E7OfVbdBnGXdSQjDPwRuGiBm5fYVtkmqKtLg1GgGvG_YsVf7VAaLXHv8Yk7EOvt3ACIit3DnUkBZDDYXZB_59xEYQh-_LsnPBIDnQ-6EhBgnrSvzSiWwr_HHJ5yT64cGhRkhUenYunUT8nh3CBxv5cPPJinpA"},"ChIJF_4WLQdqzB0R8474jlmNxKk":{"geometry":{"location":{"lat":-34.070938,"lng":18.422291}},"id":"63b1c7975e29250666b5a87f3cf166dbb0e71a5e","place_id":"ChIJF_4WLQdqzB0R8474jlmNxKk","reference":"CmRSAAAAHlKB_VRauvk0Ds4L0Znx8bitQmjmfKReIONw8F9RLozlCpMnlvyST9ciO-Zwnuth_tRE8wcd6ftQ9oYDBbYZlHR72nODEKBcCekGEdFr0CjMBTH6xJ7Y8INAby6SLj__EhDFrvmwp6xrmHAYDR4dseESGhQyKoun0rPNvPVxBKzu_On_mPRKXQ"},"ChIJdfOKnjlNzB0RqYiSCyZS2a0":{"geometry":{"location":{"lat":-33.94824,"lng":18.79296}},"id":"e87fd2381251878c7ef9d08a8b940c61cd2244d9","place_id":"ChIJdfOKnjlNzB0RqYiSCyZS2a0","reference":"CmRSAAAANTo9zMLgMuTWKmGN1d0T28vZqrPHnVnsu34pXoM8ME0xzogNSiYu3fXbGUr3yZfeLbU5CrTK0anl_NmGlLXos4dVJa9L_nh1C9-LxmgNoBycOhQDUuPwKFahGHdupHIfEhBwhvTKmy9w4Oq0CtcEhAFzGhSkZa5um6xgF22c4yuWyULmFtowmQ"},"ChIJBUdpCQCzzR0RjA6pzRa0AQY":{"geometry":{"location":{"lat":-33.88482700000001,"lng":18.85123}},"id":"cfd61738e7a82bc1e46a829634b8f79faf437ce8","place_id":"ChIJBUdpCQCzzR0RjA6pzRa0AQY","reference":"CmRRAAAATfK5O2CExD8zM0eiIS_GW6nTPDYFpAv2yD2Gjrprl2xiP0T6sGxxPQAXzrKk58VB7s_utBjrklZ47ctrGJHkrMCE4Ce97z-qw66KLESLiGEM6o9WdtODW07eGbctF-QbEhDaE56wIMaelAfmmdb1yfWNGhTSc7ywu-izB7ivDQ8hsPFRBoEDfg"},"ChIJl1tJ7zFNzB0R-URpy5bc8VA":{"geometry":{"location":{"lat":-33.952529,"lng":18.800611}},"id":"5c3ec775cc6d2ca065bc163d1ebf9ff213517b1f","place_id":"ChIJl1tJ7zFNzB0R-URpy5bc8VA","reference":"CmRRAAAA8IcMc4IbgmtySzFbcsNcixMYvlXuFN5FAnzlL-bq7QiMQHNaNyXbfe45UaLgiZhsN24oC1UGDu2SqpoSHDtjvtnJBgrWoUwI13DlFHDqgS-vZ-b53u1DE-WxHnvPJcvOEhB2Nb8Lwmmyiogp6XJGvc6xGhR6ZYvcNt7nDCz-ovrDEJXija8Xvg"},"ChIJfdOMHBGzzR0RhYT31FGSQo4":{"geometry":{"location":{"lat":-33.970519,"lng":18.836186}},"id":"45ef24b538fd2c4355af2eb7acb0b7d74c7e2b8d","place_id":"ChIJfdOMHBGzzR0RhYT31FGSQo4","reference":"CmRSAAAAu3FE5eNESSmz87MFMSGwKyK6uU1Nar1e_Cq__AeNpdXRbUME84UI1CSAKgWryW75eN6B1D9S7ZojuRl25SX2jVkgXC9puQbzKtDCHGs6Lgxu3VFTVaJf9mgsNNoBXNxeEhDWITGXr5rgj0WwOr0zhpElGhRpUst2l8--o3bgr_gdl87IT6rQug"},"ChIJs_OGcBCpzR0R8mu9l61AIeQ":{"geometry":{"location":{"lat":-33.74728719999999,"lng":18.891604}},"id":"99e336aa29c4637ac734de2c190cd8c215309d66","place_id":"ChIJs_OGcBCpzR0R8mu9l61AIeQ","reference":"CmRSAAAAbwrhdbwMEIhGtXzoTXTojMEane070CYKlCoofcEstBRh0qDxYE4_I7ylc7FsDgVCfLcQLvY2X-9w3cvDqGh9lGG1u4J8w3H10OGgSya2BbJ-5ssuUyigdifj0HMtKTY7EhAtHqjITR5qeepCAyGX3MlvGhRzMCpoVVxlv9sQVqX4sfFzHTsnSw"},"ChIJkyJF86gAzR0RBdnqYyAJCx0":{"geometry":{"location":{"lat":-33.7603852,"lng":18.916142}},"id":"1df4addb280d804c034964ba3b5d5bde50c87889","place_id":"ChIJkyJF86gAzR0RBdnqYyAJCx0","reference":"CmRRAAAABXXJKrfjAw9xTSA_66QQpx25rsRdwDmzdJMCMC62MGcBKYTdllWCPTOSstjdxB4UeY-8I2ZRPqG88bH4Bp6bTIVxj0ahUJz-8uE5hxF_k2lmfyM-pl8EbsC4otinruIEEhB-xzxLI3WHyeDd1UnPa-ArGhQQkNNL4Q-8lHFmTVer_zQY835krA"},"ChIJ7938k8u0zR0R-YToBJnuDg0":{"geometry":{"location":{"lat":-34.104073,"lng":18.9412022}},"id":"5fc4f9fc129005d4bb523a1023833580cb46b1ca","place_id":"ChIJ7938k8u0zR0R-YToBJnuDg0","reference":"CmRRAAAAtkrvDtjb9LKl4dVHQXgj01-AAzrraBqyBK6bO2pxiE0qGXr09xP3wPFuoUsUo315oJqSC-7hFpZPFtE3IjbAeyrou1tGqVWsi3p8YIIZ_wYA8HOf5CZ3u5IaL2Wpu3W-EhDwSqsHJNzBgPB4AMO5HjsIGhTX1lu-Tw05oEfhZ16zuoUnYD-Xow"},"ChIJIWC5PYPnzR0RzEvkdpfSqO0":{"geometry":{"location":{"lat":-34.240314,"lng":19.1985229}},"id":"2bd907ca32ee13124afc436494ea382a84129d87","place_id":"ChIJIWC5PYPnzR0RzEvkdpfSqO0","reference":"CmRSAAAAB81309wYVbrk7Nu3O2ZybZ1-P1YWFSmZbRrFaoJuMWzJVkwEAtZSC7Bspor52MAWj4t_4wmSgqwINi8mVZlyaPgOqaeb50OGbNxgeJ9vdrgDnXjiYqfQxTGKhRNCo_LhEhDCiwfmR9kHXdgTzgnJ8KR1GhTtThZV_T-fEj-lJaOOhAlREt9F6g"},"ChIJJejU6OKxzR0RO5WAGlKasYg":{"geometry":{"location":{"lat":-33.9983327,"lng":18.8560216}},"id":"db424fbffeb30d8e037100dccc04ec757c91aed4","place_id":"ChIJJejU6OKxzR0RO5WAGlKasYg","reference":"CmRSAAAAOul-7oPP4CdPSItMxgziRtPx2t4giZbbdtFNGB6P7X86-Hn3E5dwvM3rgAv0IWJ4LcQKbQvsAoruzADxHbW3bqRUwUToqRXSP36xakaZ7FwkGwq4S0o-v8QRGiyaSc3DEhCm0pppA78oeL5cB4dqm4t_GhSGXs33MgnNkKnhS0hd5je5GrnB5A"},"ChIJjb4TD_fmzR0R8xkZNfLxYQc":{"geometry":{"location":{"lat":-34.238734,"lng":19.249591}},"id":"6b523b80672b0c650ef4a67fcdc43d614231533f","place_id":"ChIJjb4TD_fmzR0R8xkZNfLxYQc","reference":"CmRRAAAAv4Vd5Xjm75YWKhtl7y4MuHod_dydWLxIKriVTAiWTHT43DLUslI2euzWdcaDBIO6DICJ3otNani0E3E8T87EKHVd7IT1mI08YwwTvk6b7L9rk8FZedVTaySJ2otPZCjHEhDVCeXz4T-i0wo6tVurFo71GhQquZiktik5tg1dHGSyo5T7IUafLA"},"ChIJYxRjr8GxzR0R2nzk6kdbnmo":{"geometry":{"location":{"lat":-33.919227,"lng":18.928825}},"id":"9771a3b8212b3fcf1fd183004a3cf8d91f2781c6","place_id":"ChIJYxRjr8GxzR0R2nzk6kdbnmo","reference":"CmRRAAAAScXCwrEmTFkbm6lB3KwhIYkyZAxT07v_qd3iAGhHxDf12kKifhIClnW6lnpnbmMkAeMiZzXYhhTYOG1y10ZOTzoN3ZMZ2nl3lAeTWa6zen_Q0qFCEmN8XDv0E_pJhbJMEhABL-0Dl6PhrJ2xRFVx_B46GhRHPu9EI61x4OUUnyc90Pfs8mQlfw"},"ChIJZfmxGmTFzR0RGv6ymODNm0s":{"geometry":{"location":{"lat":-34.20311,"lng":19.00453}},"id":"8a5b8b459490bdece3e1daa0d245535d41ec0904","place_id":"ChIJZfmxGmTFzR0RGv6ymODNm0s","reference":"CmRRAAAAnBt_h8ZoKxgqts_3lDWowpJD9zEzow9qLX6HLossWBGpffMxyYBl0kpKjg0aETffya2WU1B9YFtubASWCfBVA9JcT3uK-0gFmG-HGDP9WO75puW1i7sZmw59QhETWAGJEhB4rD3PP-bitZnfjiW0agGuGhQrvDc_OKvDvRnNlLLAeT_jnJx-0Q"},"ChIJYQyr2-qdzR0RcG5B_ujknQE":{"geometry":{"location":{"lat":-33.68770999999999,"lng":19.306004}},"id":"3e4d9caae1823eba27edc95662eaba9533cf9913","place_id":"ChIJYQyr2-qdzR0RcG5B_ujknQE","reference":"CmRRAAAAp4EkhrX0CeZUmr8y_NqxugimUj-bGUi1oDSIEbE0nNys4P_lkQu3ROIDBTL7wf6Q0RF_tx3Yf5wwkRsYLSMlMW5jSIJT00-JoqrygsqTcGEYgb5sf7s84Ygq3KAQKeHeEhCJT0acTuIdM1caugkxwGD5GhR9hKEQY2V926ZKhZch3WI4n05uXw"},"ChIJF3boO8iuzR0R0tB4m80Smao":{"geometry":{"location":{"lat":-33.82250500000001,"lng":18.92998499999999}},"id":"893a44a3ea2b42c845162337bc3a2448e8e38c10","place_id":"ChIJF3boO8iuzR0R0tB4m80Smao","reference":"CmRSAAAACbqChfFhRb2Lop48zqCHvQLwmsWkM3YC02-CnRtPf0LGS36POpabypP1Y3oxOByuZdruDnAQo9RUYoamq6tGSVfK5UEMXwVsVm6K2fDBHlnQj5NplspsafNYd6mfbTKgEhACYPvG1qHMPxtwfqkHvWQUGhS344XLb21Ro2GQtg1CD0pL4jwljw"},"ChIJr8AOrlCozR0R_-LZjMmV4vs":{"geometry":{"location":{"lat":-33.76327000000001,"lng":18.9740599}},"id":"0476a85d80d6fe3f907b8f173c0db8a43291c29c","place_id":"ChIJr8AOrlCozR0R_-LZjMmV4vs","reference":"CmRSAAAAmzA_3mPubE83Ub3V02hah_RIvBLA5cxpPez7-jw_cdNFRPtgytesdE0T-YoOA99tevTSd997uPLF93KeSctT-3GankfqYXXT1Ut4x2NzlNXdFk-gWt7CgxR1ycRDJvU3EhB33Gw8P5YOwzaXKiCBBOBvGhRLDjp_KUleY9ict_FcfF2dNLoReA"},"ChIJI94Vg0PbzR0Re5bsTUzUU_U":{"geometry":{"location":{"lat":-34.237608,"lng":19.07829899999999}},"id":"70812d8feb33942c9224809ab3923e9f193e653a","place_id":"ChIJI94Vg0PbzR0Re5bsTUzUU_U","reference":"CmRSAAAAdi2SUMG7nxVZxSnKpPvCcAELKQR2D9Bk9mnR6OAyYi8JQFwj7L7pnMVxKK3cXfQKyevbeHmVdJ2cm3ZSR-9mBW4IyKfsTqmnzfHrxkO2AtKXuEBjr0fLszyH0BLwfImyEhC-eiTJjUwFe7Dv8W4DvkSAGhQ6DjxrxX7hJEjNQWH9WnRNQoZcSg"},"ChIJWxPMK1KtzR0R5Uu7htpCo9Y":{"geometry":{"location":{"lat":-33.922841,"lng":18.819279}},"id":"87ddbdb11ad232645670f263b12fa84e75a76565","place_id":"ChIJWxPMK1KtzR0R5Uu7htpCo9Y","reference":"CmRSAAAA7CFREgRzjWkOpci2lsXxOuozdFei7aC93V34NOZ1Gc8jTAN4xszEBQHzIeqp1AEOO-a_M-ItYszxKqGW8ffAeygq82c43-Ei6NgciHpqqwT8QEYCl3GzoezP4GqN_tMREhDRRXm85yg2x9sPWvCUJ1MOGhRK0OWqpeq20ik8kgUFo9oeRtSFjw"},"ChIJnas91ZqvzR0RWrXvyIUzUc4":{"geometry":{"location":{"lat":-33.8585585,"lng":18.9863504}},"id":"aa2f75a4ed3040610654c1573ffe2bac910bda77","place_id":"ChIJnas91ZqvzR0RWrXvyIUzUc4","reference":"CmRSAAAApvG3WJ1iHwFuUgRvtuqQ00_63VhQZy19afumINpSB052jBrQR6-Pq1p9uL8yY6FLWsIdFGbZM33RnHYvc8-5DH6WU42zL3H8SBcZDFLVP6Vv7pTUpuVqxHMmIP-BfOSJEhAxgAIKmjkFyAFWtA9elz1-GhSOu8X9fz_Y4xTCDcJUgy1e0NksMQ"},"ChIJMcgUFFm8zR0RVgFlGsruK3M":{"geometry":{"location":{"lat":-33.88112939999999,"lng":19.0643241}},"id":"ff9dd7a29a24119ae3fc7ed0d844106f8c115829","place_id":"ChIJMcgUFFm8zR0RVgFlGsruK3M","reference":"CmRRAAAAY20yBf-1eBVrkOcTfxedE9ipuMCjpMXgaWpXlzrOsbWUZ4ZNr6fYVUeYyKyn5ieMqzI3_eHrnQwuI2HFvsBwhlOze-FD6spsFva_p-cja8ba6r5kqJRcV2YY-DQmbAwrEhBpL1phpUzX4ikaNEY4rYs1GhRDu605cZTkmp8AEHteQzUesB-CPQ"},"ChIJXQPpg_lNzB0RQIWbGyEgNhE":{"geometry":{"location":{"lat":-33.936702,"lng":18.722804}},"id":"ab8ba1dff984a1e6c3671ef0e500b0a2df18c33b","place_id":"ChIJXQPpg_lNzB0RQIWbGyEgNhE","reference":"CmRRAAAAdIhRrZw94X1SUDy9m4yHBH0Yld-IBj5HUUSO5kqJ0CDYE-4AyG6joRDchM3P0svrRBVGXW812Ma0NO7ygNqMHx4D484_rboase_VNrTPlthMQGyUYFAwPruVjeKGxwCTEhCl5Dw3YTRPICsYWrTSyjr0GhSogSaO0OoEId0rQpkdc43YS-K7Hw"},"ChIJiaLEiwutzR0RNPeOkuH1Fsk":{"geometry":{"location":{"lat":-33.8860045,"lng":18.8441538}},"id":"1fc477d5da5c0cc08ffa4284fbb8dadca4dcb92a","place_id":"ChIJiaLEiwutzR0RNPeOkuH1Fsk","reference":"CmRSAAAAw8Rlsu6Wzom89gklrDHSYi0gccKe0AWj25wAJUarMyCgY8Ngl0MCq6J1ZnvJqQE4Qw8d9GTsUS2XDPO75E_N0uVVao5u0vYqZtZK4pCsC8CDn8VvpSJYBAebgoLra8JBEhBIDryfq1eQOOsboQ4qmduEGhTTsIKU5prRT5l8-VmRu_CC8Mavfg"},"ChIJKefm4MSuzR0RIIdywRRg_xo":{"geometry":{"location":{"lat":-33.827898,"lng":18.936534}},"id":"4057541b7f671eb0a16883e68e6cb3cbc5fbf4ad","place_id":"ChIJKefm4MSuzR0RIIdywRRg_xo","reference":"CmRRAAAALw0JPlSMJnI5FODwx-NomErldWCNq_fakPWQMYvAPBHNeG8M9hXXmsf2bg8P29MeSV6X80Vc81hLkykBy5CPq1rrUxjH1VTJS2CtRfjPVndgzaVfCh5EFMoBTjEk2E7xEhCxt3uR1ENW6xHz4VYDVTvpGhSZH2SxtfQaagAgQ89Qe_Kt08hMYQ"},"ChIJkQ7yIjBozB0RnYeHPdgkawE":{"geometry":{"location":{"lat":-34.015094,"lng":18.415135}},"id":"dbdc46d19564416eb908e9b35dfe4e036fb606dd","place_id":"ChIJkQ7yIjBozB0RnYeHPdgkawE","reference":"CmRRAAAAiWO_QkidnzbctY0O9zcA4Xd93a0PuaQ4OyquEtW_FKJf2U-I0xsENFeaNp9rM1E6DmxZaKb_fsYikTPtM1ZDLXuLiWjQ2fp2gfhvVDZQd0sD1NfiTzejg4C3m81Amao6EhCbUqZzh6kuBZa3KQ2NXQdEGhTUGy4QbmZIc0OgePhHEQsqu3IYSg"},"ChIJoyhIS6WuzR0RH_4TAMTBSjw":{"geometry":{"location":{"lat":-33.8285478,"lng":18.9146995}},"id":"9de55532df3875a3e929a78f102c6e21c12d2dd7","place_id":"ChIJoyhIS6WuzR0RH_4TAMTBSjw","reference":"CmRRAAAA8kjq9ZD6Tr3GszbPueurU3P7P1SEDntiAAMBr72NBDE7ad_E49wbdris8ulqlrqfF4pEPSZUPBllUfGvzQRrSvyVIJ_Q45z0ixOXZ5kzKQHlXLy5dObcn0qmjJxG31jrEhDdfRywzkWGhb2x8h53i3SJGhQvGf8vbisf7QifYUYqSmfzokH6dg"},"ChIJ4ag-Ml-8zR0RTac9cdL07T0":{"geometry":{"location":{"lat":-33.9257185,"lng":19.1199353}},"id":"300ad5953efccee092e70f1882f0113f81907eea","place_id":"ChIJ4ag-Ml-8zR0RTac9cdL07T0","reference":"CmRRAAAAclC4ZLWg7YLl9E0p7ggsN3UJu6haVccyaYLbZiXlT8NhQLO67ISaXHOB7MR2qwe3KNkQ1qsJrjIKCMmaY9SxSnCu-JhRmULlUJ2ZCLItmgR_vgc6KRzVMKpjslXVFfrHEhBwqJDXBZQqK_NyKNvruRUvGhRPlO1oWQoaxES-O6VXnk62rBuBkw"},"ChIJO00iDk-7zR0Rbp2E0wSyJ5c":{"geometry":{"location":{"lat":-33.886863,"lng":19.07626399999999}},"id":"74ab84222ff0abbc53c807eb298dad51aa57bf40","place_id":"ChIJO00iDk-7zR0Rbp2E0wSyJ5c","reference":"CmRSAAAADKWvpVHUg8U3hkfp_jB4Y_p0OwfkqipQjzsRJpSyHyj-igJHfmUl9XeFpb6YK_g5ybBrbH_-wXzWcM2V81yPxWS524JeY0BXz-WaCM_OSfXej_qNSCnnOp6GTkYlrj9SEhAI5_MGK-Gdrz2LecCfcq_aGhR_JSJglLa9sWnPRi28dFLdXZU3pQ"},"ChIJ3W5bsb6xzR0RZKun9JRBPl0":{"geometry":{"location":{"lat":-33.9263749,"lng":18.9319848}},"id":"8985c9fe395d4cf55e488fdab5fb7192a5fb3336","place_id":"ChIJ3W5bsb6xzR0RZKun9JRBPl0","reference":"CmRRAAAAO5GoDHzAHH6MW3RXkjoxEPdYxKQchJzKH8qutu2ynJzBPEupVmIWX1B2d_XIjVqzWYQo7QnCdRqD5TUUiBW0IehXIxq2JTzOQSDvFdtxrF_QpsSyMjwngIEpwIxcxlYTEhCPDmX1iYDdJO8PlPQqWyTPGhRE8ZGCyrU8Zzh04-4WdZy5KE96aQ"},"ChIJQTnN9uqvzR0RoOBn92DIj50":{"geometry":{"location":{"lat":-33.874582,"lng":18.976108}},"id":"dc9ebce7117c9571c6cc4a3cb80cdab10c59f304","place_id":"ChIJQTnN9uqvzR0RoOBn92DIj50","reference":"CmRSAAAAO7s-r221SUTCc0LVU7TIiwaZuaJ8xKbjiq4pXzTr_txA-0ztUqArwfsm_zq7-IajRjOk0YrPyd6xTFaoTERIlh7sgVfk8byfTfWoZp79YO_evIQfHoEr1_iQfxKyOX_VEhDGphWNXfr2xiDMY2yiX2pBGhTTE39xZ3HBIvDZdJFe-fOanc7NZA"},"ChIJyy__NuWtzR0RAm3iktqXtsc":{"geometry":{"location":{"lat":-33.9115778,"lng":18.8887342}},"id":"28e136275d8b3e45fda216588597bb59ed2cc6ad","place_id":"ChIJyy__NuWtzR0RAm3iktqXtsc","reference":"CmRSAAAAKWgHtu2bIrEQ56DOd-wZAO2xqPu3tGTOiFQufSSCpInJc07STyl1NX-6XLBHXfOIgvIxmqKrd9zvQtrct0ZuneJ24AprqszVfLAvfWkQXkFRnzz9GVi6k1Ozcczhf437EhB4jf1Ajblnd1N23qzMkisgGhS_ZoGc8oq32a6215HozgeJFHCJmw"},"ChIJt5gVk3fJzR0RQ4ukl6dip7k":{"geometry":{"location":{"lat":-34.1103539,"lng":18.8971146}},"id":"b94f78ce8cfbfc951a1b570e0b26ec1406d616e3","place_id":"ChIJt5gVk3fJzR0RQ4ukl6dip7k","reference":"CmRSAAAAXHgaFSUrNYloHGbBQXRpQaRSaVyuDoH00Vv3srIKHWYi5wrgTbv6ipLQOa5OP_kbaT1GFH5iEoVNqMSgVXD3KkKru0_PZGgrvfUC6Y9ZEVRQe4PF6vDXo59jZWh8wkcfEhBuSuhW1NcDFjafszOHAb5WGhTsE_GYohz6ca9nqtcKA90OPdjESA"},"ChIJuyRtSPW0zR0RnoXCBa8-uYY":{"geometry":{"location":{"lat":-34.020794,"lng":18.853783}},"id":"33fd2dbd8fffae44360721c396161b48a5f61c1d","place_id":"ChIJuyRtSPW0zR0RnoXCBa8-uYY","reference":"CmRSAAAAy_KhAsgTxobJisrW9IODKwxcIvmiCVtvNAVi0sAhD3b889ROxEyoP95_SsaZJvoFAPxACU81f9RR27aJmA_Jqo93ZFUacWF--VgAjIHE7maCTbTN_mkYQqFUFVEpnhZxEhDzsUCmnnhEESS0VgsJXF-WGhS8JjjKSM4JibRm6B1a5ex2xThkNw"},"ChIJI3RtV8SyzR0R7mEWHjlEkjY":{"geometry":{"location":{"lat":-33.937855,"lng":18.86355}},"id":"c8585114561e53d4dbe3b3e37273893a51e8e638","place_id":"ChIJI3RtV8SyzR0R7mEWHjlEkjY","reference":"CmRRAAAAed38OV-BVsMn7zlX7ttgQUxJB7wevN78_n2o_F-YL-OGNbv-T5TUYBjofCdXoUyfrSo4vnuQq0ZdE_RatmZSMknKdh4xYR_cm7AS2Z6oGJQe84u7B7uAW2Yv4o6oeScyEhAnAcAwXTgCaKD23PbkeZOiGhSgnzPR1PtyuG4ISr6csJ6RyO8B7A"},"ChIJX3UP_bRZzB0RnaTsfwiCvEM":{"geometry":{"location":{"lat":-33.8274407,"lng":18.5903961}},"id":"89acec37c5ce5096105d72425700fa4a127697b9","place_id":"ChIJX3UP_bRZzB0RnaTsfwiCvEM","reference":"CmRRAAAAOdXhJle457p1PlcIheyLMQVISqUSgf6vxbR8RZvUaDhEveIvd1MrwOd-inFxjB-z6A5AQWoCHpMZh6J2iSyYi1C0AcOOJ8evHb3SX8aOy_3KkJ5YsxKHZ2cJ5l8YNWu7EhALQMb2ucV6nuoORasPsy1hGhQox6_wQUMcyzXIFITVO7ZV5W4RKA"},"ChIJ13rBOOnnzR0RvEEF6oWqc3w":{"geometry":{"location":{"lat":-34.2143435,"lng":19.20688}},"id":"b90a7db6f1f7098639ba47b08ba73cdab5158395","place_id":"ChIJ13rBOOnnzR0RvEEF6oWqc3w","reference":"CmRRAAAAhVCSEifSriV5Xlo6OjQwYUPM8M3pmqW9iS1WZx12PURL8xwao65s8Ck0cH_VFhKA8nU7HOnhwA0M-CJVD74q3eNRcj2QqZdHi0j0M2A35IqOR3KssUxLYcayYdOYl_8dEhAvgGN3BL-g1IsgKgz1HsTKGhTPwKjqANCsGoVEUzegy2oHYtJWyg"},"ChIJjWiqcJarzR0Ry5RnP2jT-1o":{"geometry":{"location":{"lat":-33.8162556,"lng":18.8784693}},"id":"d9da4b7ff39a371b580f7a1a15fbf7476d3695e7","place_id":"ChIJjWiqcJarzR0Ry5RnP2jT-1o","reference":"CmRRAAAAFUtUw_BkacrWxk1zEtlJrz3qBsjvaPkccjBBkXpzPx3DuaQEin6OvM4g7HDsLbQvoKsfauFlZciGXZBTd_nXO5a-FxgRdHJ6lS3CbZm6121TmcAos_XyPT5HohhHmi3REhB2AR28J0mlL9H_m2qij2vNGhTvYxmTH25G0cjo1Ud5TOmEfduS0A"},"ChIJ7yyiyXvEzR0Rd8ji0RtTJBY":{"geometry":{"location":{"lat":-34.1687417,"lng":19.0855573}},"id":"6129b3c53b2c1ccda360f75df8652d96d3472c6c","place_id":"ChIJ7yyiyXvEzR0Rd8ji0RtTJBY","reference":"CmRRAAAA8zACCgmT13w2UTvJRAKdEE0nycRNORNKFK1dzEl-nL9ApEnLmr3VU8sDkBHMOjIeLgMqt5f2KRIHlfKkl5jPLhB4yhGQd3_S6BSA91nbrWCWdKxDBkAZuQd_nc8FG46aEhAy2JgOv6jS78uLaM159RsjGhSOgyNjwri0RvU9ESCmQ0hKWSBvqQ"},"ChIJg0WyMvxNzB0RP7vVcPwcsqc":{"geometry":{"location":{"lat":-33.9409513,"lng":18.7152524}},"id":"80007cd92f7828103a35f4697ff2fca244b26ca0","place_id":"ChIJg0WyMvxNzB0RP7vVcPwcsqc","reference":"CmRSAAAAf0Pg_Gl66QUIL-Xk3blvwmqOAA8vTYgtZ0iTUNhItwqO5tBWIngQHCTnpDHvMPPji8OCqQs_690ImWDsKrTzNIpa7-2GEFKTdhCQRmy-_CV9jE9NK4fFLP8O04WQxTq3EhDJwrdLQkgQmEdWQqRZvjJ6GhQHwlnjulvRArHr9XllzVrWxg8umA"},"ChIJZYV0GZqrzR0R7LQ_xCwmPss":{"geometry":{"location":{"lat":-33.8284813,"lng":18.9147466}},"id":"a01a93846cb567f48333ecdf06d03494de9282bd","place_id":"ChIJZYV0GZqrzR0R7LQ_xCwmPss","reference":"CmRSAAAAcaiOeYKhsk2Dl6cZJbdvlXlq357aUbWgq7poScQWZUVO1-ggpdRoCQ3-MY5-_sYGmEda9B3pQoWYmGJml7Qxy8LcSLiI5bX79_wpn4Bp1IG46WvpbM1U_xI4ThtjHb-wEhANSCmTjs99z7H_a5BiFVoxGhT2y5mEwZNT6iqfaSQpsGkaFc6lVQ"},"ChIJf6ORh2yyzR0RUs7KIktLVVs":{"geometry":{"location":{"lat":-33.913439,"lng":18.940113}},"id":"36c58724436677c8b96aa3271dfb192c34f8255e","place_id":"ChIJf6ORh2yyzR0RUs7KIktLVVs","reference":"CmRRAAAAkTynMPBE9khjkwKb4lXZkEUQosfNICoE1NWfMMbbujxgfJ4kQTyaRcm6ifw0OCVX4N4UTGXb1zdxjx3hCI2PQ-wwuOByuxBxtsX2AaqIM7_RhhlmG2eEKKVz100K78U5EhASjjIW1oeXFZ44KS7CeBXUGhTP3MbXQeo_WmijSpyfAroFJcVhUA"},"ChIJqeXmbZTnzR0RWwh3whZwDXw":{"geometry":{"location":{"lat":-34.224879,"lng":19.2066658}},"id":"f6d118b67eb62ad94145a68630ee7fd504ff400b","place_id":"ChIJqeXmbZTnzR0RWwh3whZwDXw","reference":"CmRRAAAAevNyq4beIXoV2ays83ciYQzJ2htq-1_ygMtYp30utLLYbO38t_xBMw5M1tzwEoq6_bRyfxN02qCbatuO9wpI2TJ1H3WJMvbxKISbDLNtNM3DB9LetZj-iD8kLiIbcnMiEhBkDKtF9bMb7nwPReFA24SJGhT0rxzeJcedhkVbqG6aBtNP-DXP_g"},"ChIJzws0T2C7zR0Rnw1eWS_ltv4":{"geometry":{"location":{"lat":-33.8992322,"lng":19.0911641}},"id":"4f440d322b1a1334cb5ab5ab719a36b02b7f8cdc","place_id":"ChIJzws0T2C7zR0Rnw1eWS_ltv4","reference":"CmRSAAAA6xlyZfLdorIzWAbVAlRG2I4bUdBO-oXb8y33PypPakrgltEIUtvjTXX9hoiH064CfNosN1phy80ezBOkczB1IMpPc7AxGiO5ElnQCROi-4q1Qx8hoG3aG6Qxudh9cfe_EhByCqzijB6K6RrtgYx65pufGhQXS3pmE8X1IgZiFAYXEYMJPS_KcQ"},"ChIJf60mtXvEzR0RFpu_RtuQALs":{"geometry":{"location":{"lat":-34.168747,"lng":19.085455}},"id":"0afaa3c007b6dc93cb98aebc1d143a5068181571","place_id":"ChIJf60mtXvEzR0RFpu_RtuQALs","reference":"CmRSAAAAjgeeeJ5ZFoPE4ioUvtxTXL3F6xIV9y6jq3NLkAvG5TpKHutZW8WoctT3Poqb9ddYCETVY8hCeni5dQoSx5YrmZVhiTiQ0CVc33n3JJDymPBcBl9Wt_dQqKe5Pr9kZ04EEhAk7KCpKuDMVWMqhFrl0YsWGhTySJ7aMvRwBm91-0keOmX44twLhg"},"ChIJx-s_HlapzR0RpbuGXipJjn4":{"geometry":{"location":{"lat":-33.8121313,"lng":18.9033343}},"id":"cb49dfeaca7041329f99c61bb2bceaac0780785b","place_id":"ChIJx-s_HlapzR0RpbuGXipJjn4","reference":"CmRRAAAAVyrvDjCAzM_4XPk4yfbHrYLhXvoylw8rCHQ9vIy6_5SjMHMG0b3IF-k3XYESL95W26sQUvf1LZ7YAa0fEcaZvHX_3tICSVv2Ge-zEY24I0OzNn3JXwee9CO5sL90N0ulEhCnkJAoaILG3LAtH6ACObHrGhSyLZoMaX1wShwdIsvQaxk7OT1siQ"},"ChIJ4xA8lGDizR0R8VxXeGj1ZIY":{"geometry":{"location":{"lat":-34.331081,"lng":19.326533}},"id":"f044dfe2c488b9c006fa3f5d2f7b29fe2d7e2b71","place_id":"ChIJ4xA8lGDizR0R8VxXeGj1ZIY","reference":"CmRSAAAAHvMu4pIyUObPSCiYPGW5V2M33E-zkyZtn6fD1pwXEPysUDPb88NAU-dG78LBMjIKjGNDt0jIfNgbMpic2Voqssqf4kRb2yipLVaGVE0pEVdZfW56Xc6f0RjFU45foa-9EhCMU-TGOSgspSieUFEbVUXxGhSLPpdQlDsQmhCmk4fezBB52oB6bA"},"ChIJk_QdjyC1zR0RWYGPeMtTtTE":{"geometry":{"location":{"lat":-34.04674,"lng":18.82792}},"id":"b66a2df671a99befd87f043376383c8e1d22ee9c","place_id":"ChIJk_QdjyC1zR0RWYGPeMtTtTE","reference":"CmRRAAAAjcnVvrKx3p-M2wxbQsVGyYScn3lhufMpKiZkPjIw-LfuP09mgi2-rxGtb-ugc_o9rtK43xagoMDjG3xXLW-SgKbhOAcu8mXpOqkMI7SWiRxpLJWEMLzeM7aubLLdsxKREhDqjGLQoMPDwD7Qc_JBygf-GhQA4upwB6QSaBsN1ClbWaCVU2wNZQ"},"ChIJF8y_791MzB0RmGpc6SI8yUc":{"geometry":{"location":{"lat":-33.9728893,"lng":18.7847029}},"id":"bd88c135a72f13abb7353fa50eba4207614dd0b0","place_id":"ChIJF8y_791MzB0RmGpc6SI8yUc","reference":"CmRRAAAAYEJw_DlYL230vr4MwjNAXlMNRxzZ1oXyuEJuIUxjVxJUWF29EnPBXyNAWZv0R_13I39A24vRGeIfSfkLGjHeeS57aj1XIWt6FqHhulAFASbYutWvs4a5CzENjvxNb9EUEhC1ATj3KSyWOaKm37FoLP46GhQcnUFTRKLmBpkmIyNgUhh6v1_igQ"},"ChIJZ7mPiDvbzR0REW2VrUCl5nc":{"geometry":{"location":{"lat":-34.2420554,"lng":19.0514604}},"id":"4b5ff785795f16d2dc7c258a32b1b0c8c5b0f988","place_id":"ChIJZ7mPiDvbzR0REW2VrUCl5nc","reference":"CmRRAAAAR5OdkUnWE8FfSNdnlSozRP4ZL2LobZ_pV3jX4biyw0oM8uCO3GxDHgBhkSgvBSqfbUAHlv51USH2pdF5xEMjEP2X97gmwLnXHiF9qjcbYDjZ0MIVOcBdZknRpcDDs9klEhCAuuZHXeCGBe55ZEEB5__KGhRxgZ9aBq4LzI_8S8nX4jkrHvDUMQ"},"ChIJXZUo21itzR0RoqnmlxhS4Nw":{"geometry":{"location":{"lat":-33.9181428,"lng":18.8243824}},"id":"9d8d07ab41f1c7067c737f2fb22afc470fa0bb95","place_id":"ChIJXZUo21itzR0RoqnmlxhS4Nw","reference":"CmRSAAAA8v5snQSbPrFf70m9UCohwQ046j54Jrp0XWBquJ2wegjcmbNFOIuNKxsxt7xcra2xwPlz5tQIieeB6Drxh-0ZjMJ-7owrdwN74mcouJdxUe7X1mG1975jl243_5zMr0MbEhDVzDICEPJjs150PrtBZ9w7GhQVUTxPbSINvM9yeDNuO4YlMGuEbg"},"ChIJ-ROcKtWyzR0RyLMeOVs52fA":{"geometry":{"location":{"lat":-33.9607453,"lng":18.8080252}},"id":"fc95e9091eb665aa58d5c2bbfc0d34d3e6ea480a","place_id":"ChIJ-ROcKtWyzR0RyLMeOVs52fA","reference":"CmRSAAAA0qXLjxcPMi8RySnfPWNEAWgDvfo4l7CbnOJ8Vksym-_iI5gfrM9Kr0l8g9QhVvFnZjtHccdMTKnGjbQ_qJobMm1we_J3FbJ0eJztNByM_vNIpfSe4rnGz1fuof_8ByeyEhCFp5eXy_rUiz7xt23z_6AaGhSz0taWUDSED0TRYtsn1rbdSC0gtA"},"ChIJ_VjYWzJNzB0RQAlbIzZxwhk":{"geometry":{"location":{"lat":-33.95161,"lng":18.804484}},"id":"33d46e84b7d7dc6a3dbd4759b82f29c1401cece9","place_id":"ChIJ_VjYWzJNzB0RQAlbIzZxwhk","reference":"CmRRAAAAJM-dJ21ylMXxz22_XyIaQLXWI_6lvrzPJVSK1biW03fwe0Ky3R0jOFV5oyjn-R-_1ZB66LlwWsm8qghrru9AMqSyLIPtnYMU1STkZLiN71D6PRxlngshEQIA6PC4MvFxEhAUWnq5RDG6JtXp6Lo2Jd0rGhThioSvhiZRKaje4aRUjlGVLMkPsw"},"ChIJUScve0sGzR0RVoHioRMQkEI":{"geometry":{"location":{"lat":-33.6795147,"lng":18.9687942}},"id":"0ffdb757dacb33f3e1901f3c7ad5525a99697d7b","place_id":"ChIJUScve0sGzR0RVoHioRMQkEI","reference":"CmRRAAAAlyKVUl0Eqzg5uQINz_55udmXAsHAJnKqBAyJsbn1kAiVoDpVORBuA5Q760c0CRbakUuInw-UQml1dnLVCPQw-Knc1-yAYL29gr3y5e-C4G-OtoqBdOyPOH_FIWIyBDFIEhAWRTg-U_nG-9aBp8jlyHFRGhQm2YJ9nh1rL0Xzc6qIXqT8l76n5g"},"ChIJ____L98Kzh0RzpBY1GHijv4":{"geometry":{"location":{"lat":-34.3550559,"lng":19.2890625}},"id":"ffda7576ccab490e7f4681b75c007229a7b5e391","place_id":"ChIJ____L98Kzh0RzpBY1GHijv4","reference":"CmRSAAAAW71ejtXFZ5xr6g1VuDkHV43rt2frujt2cJPRQpzVpcb_-dRzmrD0yeI_Bm4R47WWxxYNqmdAzplGgM6NwE5WDkzqvpC8l2Q1CKyvpiM-zaqI4GoGfx8wCyZctxida6eLEhCQnmB1LNTx1Cf544VqEyoaGhRvmCWRUOG-VrqpF8XvDqx23doHDw"},"ChIJK2Pdz_S8zR0RPct6EiAooMk":{"geometry":{"location":{"lat":-33.9104455,"lng":19.1173334}},"id":"12e664c6bd7b4e83f5ef4684eda143e9702cc9d4","place_id":"ChIJK2Pdz_S8zR0RPct6EiAooMk","reference":"CmRSAAAA4eStKcM_YAnXW6aSbL7SPkhXC2kSMr_PCDN67WzzD-spcne4z5uIkFBh92pY9FU9qMvGWFgl5N8JS6P801P5ElUmq9HzhUbqXZ6pM7hMB5dF5i6S7jnT9BQgIRPP5hLuEhBkYc74XchQ8MbfNhvChXBHGhThFzGrBhG3waFOCNwgQ4_etw3fiw"},"ChIJ03KsVcCyzR0Ryah_BQlkvco":{"geometry":{"location":{"lat":-33.9196159,"lng":18.8177746}},"id":"f5b223239039e705a0b6b846818efe6ffc0e6533","place_id":"ChIJ03KsVcCyzR0Ryah_BQlkvco","reference":"CmRSAAAAppN42P3LXace5AbgvimQPWN69GqL6ux__W-uXsv8kVHbypS6i-u8r-ASvPIM4RkGtZ3HUpvON5ax2STgj_TIZsyzZ2GNFe_y8_RW3W5jg3CXNO7DeVz6h-wuvHO_dQW8EhDTE7MQ1eBPzSHPvNO56rO9GhQarTdAED3LTVMi2ApxENglWanvzA"},"ChIJg3mVCdtpzB0RGEaBR0FMr_o":{"geometry":{"location":{"lat":-34.0419924,"lng":18.4160897}},"id":"1983eee85279a5b262db718077dc5c57ba9709f5","place_id":"ChIJg3mVCdtpzB0RGEaBR0FMr_o","reference":"CmRSAAAAIMklW0sGtbKAiFk6rSFnc3pOBNvEKJn6pi8wOG33P3qvL2WFfq9Asn8UR5J_tX_okTwM0GkPzM1g1hFzSxP-pwiDxcoYRgn-mZVpV4y9m5QyYsz0qkV4htgtuvPsK99nEhDcCpdEDDQi4RS_NnkWrY1VGhT9nQS9wWttxVisvPdb6AB5UDg0Cw"},"ChIJCWyKVXCszR0RHli3Qqm-PMU":{"geometry":{"location":{"lat":-33.831238,"lng":18.90103299999999}},"id":"fea35d2b9431a2c8de4e1fa9587aecc224cd351b","place_id":"ChIJCWyKVXCszR0RHli3Qqm-PMU","reference":"CmRSAAAA47Q-nuvToM9lwfLeqzSvQw7LLk9yIg91jByc2eynGsV0r-K1NLJ_8xxbwDv2ALhUz2GjTAa0dDg-xxoAuBxwKEynrGbP4c8iR8foNimM_k8a7meNZ61z276R3SKakPPOEhA4cJfC0M8YEbTsvYoU4pJfGhTrUxWNPegXwIePafalvLB4XWCg8A"},"ChIJ98z0Z420zR0RTJgpTTp49_4":{"geometry":{"location":{"lat":-34.0205301,"lng":18.8439161}},"id":"179a18345ea7eb0fe16e4d5acaab27d48c225490","place_id":"ChIJ98z0Z420zR0RTJgpTTp49_4","reference":"CmRSAAAAp6vgRVVfeb1i-btU6VNzDlOKMVlVYUo2KH7v2JlkopKzGVwT2sM3YopE_W37B9xGJzu0uScH6FXI3R2kfuH6PlnWo-Re-CbyoQFeKnx_CkbGP9HG_hR0GOH6jOq-26VvEhAI_rwCAVmoQiwR_orejzyWGhQk39ID0vHBCeVEjYhswG0uNqlgVQ"},"ChIJR-VL10ypzR0RSsQeBUhNfNY":{"geometry":{"location":{"lat":-33.8370195,"lng":18.9535464}},"id":"5b1680ce89e80a2c5cc383963395b900f9298f1f","place_id":"ChIJR-VL10ypzR0RSsQeBUhNfNY","reference":"CmRSAAAAUOspH2PtQTZCFT6Y3STdq7vGokxgnMJ-Z0Vn3OJHwIjLav00qWycFxeT41dzbrPzB6v9n2Z1Cujq6fXJCYueKf_F-1Vp_Ph8EwilAlnMgp33NzaiGZGrtKTRsMy8W1r7EhChODPPdC1xGMCRzivlR-7hGhS1T_VLMxVm76ptbqIUwAR6CFQpag"},"ChIJX7gVZbpQzB0R_TDFRAqeTJI":{"geometry":{"location":{"lat":-33.8729362,"lng":18.6330398}},"id":"f116964a6dd7e92f86df008498329ab127f1f15d","place_id":"ChIJX7gVZbpQzB0R_TDFRAqeTJI","reference":"CmRSAAAASqjjEx0bbtJ-jS0AO_T6iCnmTtJmNyNXPRo2-wWNZZ3YXuPfj1rW9JNPaOYivnEyAxzQch0tq_eTfQ_hIK8O8GXblcqEtJn5gpNc2uAvj3dgyMJsKe9wWA3cDf886sMTEhAtisyKp1f5-Qj5wih-awqvGhQaxFP6JE89FFuIXPrRHhicM4wtTg"},"ChIJJ5FkuXuxzR0RQxiUaDi11Ao":{"geometry":{"location":{"lat":-33.95387790000001,"lng":18.9106183}},"id":"98daa09f35bb087d3b1ba85295bf6f7a5aba28c1","place_id":"ChIJJ5FkuXuxzR0RQxiUaDi11Ao","reference":"CmRRAAAAi3SfgSOfwc8akFmp_nv3Mbqe8QMqNnrtoM017E-l4Yt-njkX2YBA_DyDEv_bYb_xCPC_5PORdg65CoWtQ37MMlqIlGGPKyD8GTmMLz4Khq930rasI6Hf_B-T0i8OzaISEhBbnTfF2g41r14W3hpeNow8GhSYZ8LA7KPXY9nN818nqXknXxRQTw"},"ChIJHaEeNjhozB0RBspQgE0DV-I":{"geometry":{"location":{"lat":-34.0136723,"lng":18.4063939}},"id":"021f8e0fb1e15555ac12e91809f238a5a21c12dd","place_id":"ChIJHaEeNjhozB0RBspQgE0DV-I","reference":"CmRSAAAA5vTbEIFViAuSMu26DJt91EaPwQVBF3nkLktHdbdSE0CZY3bO82ApjXgHfectRsTlzs85w7-OiE54icgLzCp2hMSg-4HExKOKD331hA7lJRio2jxrpp6ykwWLCAyVzIlmEhCh1PTvZ3PZb9w70UDqW2TiGhQIxy-m078WAiOVU8Sq964cEdfYOg"},"ChIJtTUTKJHJzR0RpPko8KuXujk":{"geometry":{"location":{"lat":-34.103703,"lng":18.9198303}},"id":"2e9b31dca7dd891ee425cfa415c5905d8d7556fd","place_id":"ChIJtTUTKJHJzR0RpPko8KuXujk","reference":"CmRRAAAAjMq9-rIWhDJnIUn5UgpgYHU6RV5xQ00FfHSJ44O9nwumLidyGyVxCxCCw7x4vXstCWdQB4Mz40kzUPTLcuVx7g9wfKV5K2KHIf5wObnszLi049j8GgKl7boYovSBb4jWEhD3awDEjtfMTXzY1p-2bskLGhRByt75idwRKVMZRLY4bS_JyK-xxw"},"ChIJS9AX9YCtzR0R6RvYvKFJ2iE":{"geometry":{"location":{"lat":-34.0079895,"lng":18.8185797}},"id":"d21c3aad4e1e885232e36264ef8b87d7599fca21","place_id":"ChIJS9AX9YCtzR0R6RvYvKFJ2iE","reference":"CmRRAAAApWHOSyqrWgOzcwUSdaBFb-NO6tCodzJpwh8pUZmID_-b9g9h2NC3KzMDfWolDYk0IQR_JzCd8UgwaGmUxrXxAGAgVWaVEc1ZRUSq0ImK71ka-g5U-OAVYX6_NeQXEgCfEhB_OXes7OaAxzlGXc0HJxKPGhQSlJrlEqxfvWpBvtTK6SlUiBlWHQ"},"ChIJM1o6umCyzR0R7Z6Am_Qx5ks":{"geometry":{"location":{"lat":-33.9286291,"lng":18.9460694}},"id":"98e1da0697742032f1e7f2fe0baf5907f0465653","place_id":"ChIJM1o6umCyzR0R7Z6Am_Qx5ks","reference":"CmRRAAAAEBAty78ux8VnHcnqQbzGk2foV7JOKQhuWv8vXq5LYVdm-CVfhUVuGvssSeY6F7Qjn1iJ8uys7yC8cnJ6RpxoQIx-2IWntH1nxoQacHYOqMtD4xaIpfROHERci-4AiU-IEhAre59-a1xIW2hkOe1h2hcNGhSMj3gVpxPN2P-ftWcjB7Mli-cbmg"},"ChIJXUrUN0cIzR0RUyymMnkSYK8":{"geometry":{"location":{"lat":-33.69008,"lng":19.02806}},"id":"33404b86cb408d67fd40369397fed128382a6de0","place_id":"ChIJXUrUN0cIzR0RUyymMnkSYK8","reference":"CmRSAAAA3rdMctuSat2zHroCF64h0C68KgDYcZnJphjlUyz3geYvWfEgAHal_nHNvgjW7l-XL2XbSvYpMb_CDAqgnrW1qDzhrq6tfYtm_VVXKJ4XWlUe7qn23fYwxLRSFYM0GVpuEhCefok_Z9WkSjlwWpnJX0uHGhSWodMZcmIkuhJvzfM_3Y0A-b5gAg"},"ChIJkz1nWmG8zR0RMar_Arir5k4":{"geometry":{"location":{"lat":-33.9192962,"lng":19.1114063}},"id":"3fcbc291b8fe8edcba4c053305d49538553b7119","place_id":"ChIJkz1nWmG8zR0RMar_Arir5k4","reference":"CmRRAAAAcvrKCKszaPml_Lm-ehcAtBkZkmpXPFy8AA8vM266zQfG3J98mLGoGapFJUXfJbwTBkwdSsrghH-Mqk-cUjEF1QqE4uIgtHbjUt0AGo6lY69cKsvGjjysOPSZG9fwC3vWEhALJAuMdkO9Lfxoe2-i25DcGhSConWCtDROGD3aZxEp-GaxvTnbXQ"},"ChIJSV7iBAuszR0Rr0n56IZE79A":{"geometry":{"location":{"lat":-33.8451044,"lng":18.8624339}},"id":"3e1dfacfca8fc95fd6fe432a4744540565587080","place_id":"ChIJSV7iBAuszR0Rr0n56IZE79A","reference":"CmRSAAAAdVDQBzJV_boPb-nL5Te0Mla7UuPxeppOatSJLvO8RvCKmtozzQeP7B8HRrljvh7TFd_rpM61-arEsA_UpUUEluZcWgSaFnnSolL2LLon0EC-x7nDxynL1ccanZ1UiJBuEhCAnFRQZR7yzBJ0X53zA4VaGhQJsO798Xg6-E7ifcHFjfcihfMcVQ"},"ChIJnQuXRedMzB0RAbXHET6jAPQ":{"geometry":{"location":{"lat":-33.973035,"lng":18.784774}},"id":"76879baae75067cf4794577f21f43d236fc1ccfc","place_id":"ChIJnQuXRedMzB0RAbXHET6jAPQ","reference":"CmRSAAAA8SztOphImSeOnj9GMCa7pyg2MguWLkd5I-LCFttqZD2BbGlJpafYQsCDARWzPcySM1sC_iCSKtwAC4UTwRLvJti5lH68d65yqWLMhYu3AN-pnhZtwmTYV2-5t4fJ-P3aEhBW2SmixntzNKnb04vkI89NGhTW49WF0t-mVoWFtbwDglNQcbD7sw"},"ChIJr-9_B21XzB0RoFz7ZM--Xwc":{"geometry":{"location":{"lat":-33.7987461,"lng":18.6237041}},"id":"c503fee3e243f00fac187591c7ab5d2e6ae85093","place_id":"ChIJr-9_B21XzB0RoFz7ZM--Xwc","reference":"CmRRAAAA6iA05EiWYAaaTO-CUqd5qnX1uvwMrVIXAPABheGRwUteJgtjb7aODU5nhASM1HGT0R_YiLHR54GJmfzIglajq_bFylFRgiLj_JXTVt92L0ZDGLbusWIsJ_HjAkRgH7G_EhArC5MsU00eGAE_OrpuCD1tGhThMyWXceqIkbE-_nYwEbW4H4XUqQ"},"ChIJaXMohsUGzR0RfgPBl86YYfE":{"geometry":{"location":{"lat":-33.673354,"lng":18.914916}},"id":"29f1206d44c9b6a45c0d55093459dbeedf328d08","place_id":"ChIJaXMohsUGzR0RfgPBl86YYfE","reference":"CmRSAAAA5w9h9l2lDoaqfXa3-CadKk8hvygqLbaoehuheL8vOS37H8nprRP4CjZTKrY-1vFBLUltDVCrJAA12XY7cnhjiMhW_tQS2G10CMF2WmRMtNMrdFZ2XVpWpBcITBsy_s5yEhBNm38RaRZ2ZjkKFfWwDBMdGhTOdoWBFyr88Ej_0JjSrXhUS-Sj-g"},"ChIJr0tChNVpzB0RbrLQxBck73A":{"geometry":{"location":{"lat":-34.02521199999999,"lng":18.426758}},"id":"1e2afc6aa6cabf15fcb0f8279503baae8a62b3e0","place_id":"ChIJr0tChNVpzB0RbrLQxBck73A","reference":"CmRRAAAA38t_zYbOZX33YSSdaUOnDpGqRXOHjuv4-CERjeteva28scHZWg7DaKdV3McqJLfeAxJ27dfwb3zabayb0XGZ27kLH5m09uiT8_3cnXC7KZHVsQg8Xk6eqOayrRp2rw_6EhCkOvjn3vFfP8UTBl4lnYqsGhTIINprIYql6JBurjWLUquWeLx_mA"},"ChIJM3LYORmzzR0R4vK0zbI0k20":{"geometry":{"location":{"lat":-33.9396119,"lng":18.7511314}},"id":"9df9629e389a697b64893b4b5fe531febbd2559c","place_id":"ChIJM3LYORmzzR0R4vK0zbI0k20","reference":"CmRRAAAAeJBocU7z2ek_78fF-Rdx4EM1yhI628UDj0SDsGTWvUcokicAMvjuUVBSw2YK7wR6-cbhV8EwHfwhr7sHl30D8pbQShjk160Bjt9wV2HjlwuqXjnIeTLW_naO-_tlrkjkEhAb9S1VHr9T3wx5sEKJMsw6GhQH7yELxk5enSP_vSwrlXqqkjZDhA"},"ChIJlTiKIP-nzR0Rv8Bnp2iG5ro":{"geometry":{"location":{"lat":-33.7206357,"lng":19.0033606}},"id":"a9bd032fc6d7e07d9e22aa9ab09ee226c48da8bc","place_id":"ChIJlTiKIP-nzR0Rv8Bnp2iG5ro","reference":"CmRSAAAADr6jiZUIRKCoKUz5xG26hoCEXLO-VnXv1hswyCrQ5N0-B8tnW4PqaciHvVf_C8uKwhxu_pIURJaSepOjeoPAM-X8PesQiU5l7RuNiBKix1cruhUY5wV6RuFHA-tyar6jEhCD19LL1njyCiZj4RCTgiq8GhTik44IdBTD0gyF8fIbuDlIHDIxbA"},"ChIJfwZiGDBozB0Rmg_VDy8iilk":{"geometry":{"location":{"lat":-34.015135,"lng":18.414924}},"id":"eaf5963a0b3e08724cfcd2abecae1e274e6a2e5f","place_id":"ChIJfwZiGDBozB0Rmg_VDy8iilk","reference":"CmRRAAAALoV90ue8ufZwAqpgTHy8FjwXE3UbR7Q2_S-AXlug7dHL-5Mj0QtE2b_vwphscPQHkNu4ZkZfWuWVWH2VNN0EdKGfiqqbEfQJdfkDZ2gCpw4PblF3F3eU4R4X5oOKkK7IEhB_nXhJP-9RUNiNAfdNzv_4GhTNbX6O2be2x8oJdJlcQw_UF0x3Wg"},"ChIJw_swZ05XzB0RtRuIOvY67_k":{"geometry":{"location":{"lat":-33.8602207,"lng":18.6326317}},"id":"4191f4e6295de94ac37c21e75230e5f7b67261c9","place_id":"ChIJw_swZ05XzB0RtRuIOvY67_k","reference":"CmRSAAAAsn6CWl8h9wd6onqfBnHIkZ04vgrsjY3joYKOlu2DmgnUEJV3CJ3Ik7xKcVcGfMKaVf2Jbd5uEhjzysZKgeamIK7JR-G9HqZALItjW1IgQ3lBIxnTfhM6ohVrfvnVBQQTEhDUUjDv-UmV-JudlI-Wtx5JGhQpc6QA781l2Ra7YeH-04mb_vqm4Q"},"ChIJrfCVw-axzR0RAjiykFnLxh4":{"geometry":{"location":{"lat":-33.90842,"lng":18.92248}},"id":"93d518a44c776767416e17b9764ca493d4ea8b19","place_id":"ChIJrfCVw-axzR0RAjiykFnLxh4","reference":"CmRRAAAAdcZJbTE30EKk_pAzBozJGhH5Hp5_vQo1gLCJfKUvU0RkBr2QL7GAKJK9VBClQx1uUNbN9gJe3ZP5S8uYiNkIWxIXuGbtCRw-HGRvqD-SCRA53kzxUpaBnRwsx5oXdEEmEhBTZHVD8gxC8XWnqgeH8o00GhRwiQZOsOfnSZFT75j2k1EpGP3zOQ"},"ChIJNzeK0Hm7zR0RnUY8ljnJxNE":{"geometry":{"location":{"lat":-33.9141041,"lng":19.0871053}},"id":"2bc1f31c31c35dcc38881f8274dd4356ea5259d4","place_id":"ChIJNzeK0Hm7zR0RnUY8ljnJxNE","reference":"CmRSAAAAyJcUKsWIVGiew6AnHPkEuySt177uP1maasvwbqFJr39POZPzVgRwECLWxX-Aa38cu3R9eILlxcAT3uUl_r6YzpTh7tTdOkdmMebMRD7eBIiEttePXBkdwwM1TGESx2Z7EhA0W2CaPZX7iWvh5hfyk3iSGhTWpPuSbCIzeOqfwdkxh5Ay6I0t6g"},"ChIJBXBWzXKszR0RjYisGC_ISNs":{"geometry":{"location":{"lat":-33.829866,"lng":18.876009}},"id":"b86102aceaadc62f7765de42891aa6cadc79db54","place_id":"ChIJBXBWzXKszR0RjYisGC_ISNs","reference":"CmRSAAAAoNOR4imDzq_5k81m6MVglBsYbc9yU9VRAMuhYW9wCrUMuzoy92tacg00xoqMfRfIJEpBMjveLJIav0YUEB6SFm9Rc8ytjY5lMhWAFfq73ddv3T8JEHhXOgJ1PAhW9cqBEhBlA9TnvHkt7eKDvM7QrWW4GhR8o2wVp9HikDcvm3O_sXhrHCLe4A"},"ChIJvasboZq0zR0RqkozgM4mEDQ":{"geometry":{"location":{"lat":-34.01076450000001,"lng":18.8422776}},"id":"54e638b2b9fc43cc45cd1745a78d072c128d9a85","place_id":"ChIJvasboZq0zR0RqkozgM4mEDQ","reference":"CmRRAAAAwdAOJNrq0ucuOd4icuDBM4SJL1H04V1Kl_jHAF7tudmRDedsD5zEwutc0gSslqhPKPBiIrK-ZosmvI5YEKyGNOqiVvS2rCZDxNsJaUjALGUtir5z-Q76HwVehDKXzvn-EhAF7BuJolte1WxjzTjBXVMiGhTnAgbOAzpc4qVauptHrzG_8HJM9Q"},"ChIJHWDuhF6rzR0RxtSwQs74ClA":{"geometry":{"location":{"lat":-33.82626579999999,"lng":18.8193273}},"id":"74ff4ad4d75192431446f2e181472262ccd687f6","place_id":"ChIJHWDuhF6rzR0RxtSwQs74ClA","reference":"CmRRAAAAsC6KLLK8ruDPF1VETUvuJyygZPJIjpZn1eF-C4mMLmSXtexd1Jjq18xIvoLamEPG8fXLPuNXGBZtWO167ayJ0EPTv1cZ5JNDasaxU9ER6RIKCNLONWpZf-rWWqov0Kd0EhCWKqRWbyUYaIIcpRciERCvGhTGGRaza_blrW11ZMGvIhFFXcleEg"},"ChIJl6qqqhq9zR0RPZnXN_EMQnI":{"geometry":{"location":{"lat":-33.94266890000001,"lng":19.1078838}},"id":"6092e4c750b16789c0ac73c43ea47730f0a7621b","place_id":"ChIJl6qqqhq9zR0RPZnXN_EMQnI","reference":"CmRRAAAAnYtwA2Cw3QJ91wEu_mNcsupinR47gdV8HpTZRY3X7yrqrbxfiFvZsKkffEEoYskD3tKVShipi2IvNUMZ5mknW1Qs1_DbVn4WmWwnl95r3YRInxNS79VCY_8ckpadnNgGEhD85zV8dbkUaZYCf3ePk9qZGhRbzL5t80gruSwLDlxWbM_p-zTdlg"},"ChIJQebynORNzB0RRCWCMXmKThI":{"geometry":{"location":{"lat":-33.94674000000001,"lng":18.71879}},"id":"7c2d2cfee0a904526b324f82436940969e276271","place_id":"ChIJQebynORNzB0RRCWCMXmKThI","reference":"CmRRAAAAU77eq5C5vvcpNA_gx1-kKBGExkbWPPsZLn-Uxh7wd5WiaTe6RMAx7-qTC2NCx-WJC2Qio_dfaGgwxKcDq9S0WAL5Z6fYR-R4HRBNzuhOy84lH8vNs8Abfes9Jd7OXo2SEhB7ArOE7j_O2NG1Li1qM-8lGhTddRv0bx1EX-GWnm-6hudRXi-CXw"},"ChIJAQBQV2eyzR0RlHo7zfS2kGs":{"geometry":{"location":{"lat":-33.9970308,"lng":18.8308226}},"id":"0431afc644bba573c3eb7a2ec5216d281f7d5b13","place_id":"ChIJAQBQV2eyzR0RlHo7zfS2kGs","reference":"CmRRAAAAZuVpLTYHUYUEVqj18AW1ltKIYIBMqYkZtsueTAe0rXzG4R_shozrTa6jzpT4xW8RXeQ7mEOxvvZ6HyEExJOXr-35x4NDyB0PeO-ao5ptF8tm08XCtmGQLSWoQPMP-5S2EhBczg60wqFU_gPybuxEdwflGhRw4YsxLEhKkUSog9tO2YmTfmu8Lg"},"ChIJK_WHqPRMzB0RhFnMXQEbisQ":{"geometry":{"location":{"lat":-33.9905019,"lng":18.7674594}},"id":"3a6ae6d1764220e67478548242ea05142737dec7","place_id":"ChIJK_WHqPRMzB0RhFnMXQEbisQ","reference":"CmRSAAAAN9dN341YYEAhynkLBubj2IbUDwzm6953FAtXRgmkqc38Yyu7A9ZQv-S5aYSHyhIvEyE7s7z7njvHiuZNDnUkDsyxsrR9aRumgbZ_j-hDaBHvpVQCVacVx07zSmiRQLaNEhAZQo3NwGXbl-JvwZhgwGk9GhSdvJ1lGKHcRyFYOrweW9GRQF_CxA"},"ChIJzx-ednFNzB0RATHg4wO8RLg":{"geometry":{"location":{"lat":-33.941419,"lng":18.766161}},"id":"f2cb9d7b7427c24e9afd7e757dac6c8d4ce496aa","place_id":"ChIJzx-ednFNzB0RATHg4wO8RLg","reference":"CmRSAAAArk0DzzOue4ZNJMcmKjjg1sjTm2cQ5Q0cJfGTjoGQESQB2W4lR0Mu1QPJ4MrVujmBYLvIzmbdkA0gsGkUlawtxa1tiMTPU3w1wRNtxvwKb8MXnim4NI9OlgGyZP_v8jOXEhDcn6y3M1fl2qowxO7QMs-dGhTlXD1LprJWoUUtvMY_RBgCB8Wu3g"},"ChIJxTj7NM2kzR0Rc9J4hE33CbA":{"geometry":{"location":{"lat":-33.8792081,"lng":19.0527048}},"id":"2787d8f0d70a470d4a40bf1b67dc14fc9ffc918b","place_id":"ChIJxTj7NM2kzR0Rc9J4hE33CbA","reference":"CmRSAAAAV7GQBtIXOg6ac7XJ0BEq39QZ91x8aK-CZ50GoWnOBiKl5W2MnT_gl1DP6dw4Dy_F-yF-NplTP4_sF1nmWq6FXUbfQe548oDOEjQMlTXtGssIzv3K8dfKZOTgR3EOdCe7EhC1y98QFRqKOU6RDjiJ-NHBGhT-iGwE01-72iHmWivpQTKBcDHY_A"},"ChIJo3P69sNZzB0RQchTBkRtbBs":{"geometry":{"location":{"lat":-33.8393931,"lng":18.6004608}},"id":"f9f077081d3d20cef87771e1c5664b6cade66f1b","place_id":"ChIJo3P69sNZzB0RQchTBkRtbBs","reference":"CmRRAAAA-3JQ6Pmn9uIgvkRqk7_DKwaj5ckMDfB6nbno3EcUTT5UxwlkAeC7isg6IqISi5BlSryr0wralLek1RN7jrRJawxqT6_eWyatoMg-jv63MwJOIlJwbZ_kNm88Ebd0W1DyEhB4ZXK60Le-PHjztQx9MpQNGhQCM-6-AQij-23p9mwXSTyM9JAuNA"},"ChIJRQRcb1-lzR0RxZGBb-MefLs":{"geometry":{"location":{"lat":-33.8821215,"lng":19.0239205}},"id":"44a458f97fc2fa656c2a5ea0fdfa6b0496075c52","place_id":"ChIJRQRcb1-lzR0RxZGBb-MefLs","reference":"CmRSAAAADztwyhJ5BDwqPKTCknqx2V-71M9DvPJGR5Bqcbov9itB6iPLYvZus2Ev2mlYamjAXFKRwjA1kqwYXziLYGxK0ADJ3RFt49Mst57VT1kerqWFVNIQDUrgWYkOxL4aInDGEhDACviI7Lkv93ZQbanxxuCiGhRgsSZMcqCnN8LIL-Res0UIblJCUQ"},"ChIJzTsZcuyyzR0RC898sxVYZM4":{"geometry":{"location":{"lat":-33.9405154,"lng":18.8395027}},"id":"d3a5b325d6b5da82676aa1e7a045f68c1511af7b","place_id":"ChIJzTsZcuyyzR0RC898sxVYZM4","reference":"CmRSAAAAF467bUkqAYs998v1leWd72bzuvLINSsB_XOJP--AUnZ0BhlWcr_nQkC54gc0xBwG1pr7SZ_1JFX5E_I8m0YOBPgOoc3H0r_3PlO0mc1ESr2gH09HCkZ57LrGrgK7ovrGEhCqT3iNNYTKPAVDTr6xA1JzGhTfbF6rd0Ol9dwEMuirp9Tt2e5A9g"},"ChIJU-7KzlhozB0RDc9oJMiIlE8":{"geometry":{"location":{"lat":-34.0138052,"lng":18.3819938}},"id":"bbbf30efa3e1404867cf410e04adb78e11a7837c","place_id":"ChIJU-7KzlhozB0RDc9oJMiIlE8","reference":"CmRRAAAAwU3kmnHWhSNuPDfbZ_ZhSuHcwf-dRdKXbgJZf8nyjGOkFqiLQlXS2d9grddB7HzUfRRVTRqJjTEd_905LXPc3SXcgzBwKt5JUKyusXzaKvcP5N6xfFEhMkUwReK8FFScEhCfmUC9vZnCk8GpF8pK4JJDGhRy9CN8CVb-K4X3NZRA1IoeB9jHWw"},"ChIJ____v0dXzB0RTml_beRGw6w":{"geometry":{"location":{"lat":-33.824656,"lng":18.5655333}},"id":"fe5950e154edcac110a6f06201dc3a99cdf6b14b","place_id":"ChIJ____v0dXzB0RTml_beRGw6w","reference":"CmRSAAAA8ZV8YdOsZjK3lj2fePOEGbqWVdpHC0u7s5yB_HLehHo2GkFYn9z4nuuSzWdHBbP7_QoE17vE0vmzxsyCLtHR7J6zoILxRK_iOMForqCIxiFzr8mbGlA79ealPSdMGDzJEhCt90syndhDxCIIhRxCaRe8GhR4yikl8IeOeClUU1GiKnx-cpmojg"},"ChIJIV3PFTO7zR0RmTnBI637FaQ":{"geometry":{"location":{"lat":-33.881296,"lng":19.06136}},"id":"6e47d476bf3c64bebc81dda63ffc03c5aa9053ec","place_id":"ChIJIV3PFTO7zR0RmTnBI637FaQ","reference":"CmRSAAAA8d3S-RsOpzsB-pmun-90_v4OOoSpu3OSbOWx5eNkSFxzB1oXy3GkVYEh-LMm5lTMm8KKSrHIpK9SYycWjMdR1aqQ3dqBTuPclVRoYovey1n0vntOna_kw3tOCZY-l2IGEhDrp6_Xv8hiqVXmMh_E7mW4GhS3cQAYWeN55twGmpqj-YrJbEhgfg"},"ChIJm0-a7P5YzB0ReRBmlBKv-aU":{"geometry":{"location":{"lat":-33.82511399999999,"lng":18.565735}},"id":"3b4c90fb4e8dbdd5342c52091e35dd457f41c332","place_id":"ChIJm0-a7P5YzB0ReRBmlBKv-aU","reference":"CmRSAAAAAyjoPy9nsCTSecGw8rj2kLPUXFeWJGhj_tDXNu_CZmmrnZAWsa3q7QiknfxBR84c7K_4N_K7qA2M6TY_pGCf9z2_qVUCRYyznLsNmTRCwvRGNKraeM6_wIFgvgoOkvr4EhCRSTYXX6iKcKsCsKkx5UdEGhSPuMtXtVsRi53K9_Gm5MSacKEBWw"},"ChIJq4fKEY5MzB0ReuUy-E4WNn8":{"geometry":{"location":{"lat":-33.996537,"lng":18.771038}},"id":"8a9c679454fa965768e19adb1a90c59d73ed3d04","place_id":"ChIJq4fKEY5MzB0ReuUy-E4WNn8","reference":"CmRRAAAA_8St7oYWoHtbM50oVRS3tlE5hD45ktpa0WghGaAbJM2P9ZzkXtFKCCFWqq4sT0SX2E6Flzla_nmvW2sF7VMOL0gFsZPqHHmGSJM5H6BFQDr-hoEIadN2NiFiKUFJS0cAEhDiEOPPcqglfvmupX5n3plOGhS2wDp0uNSjtI6yeZsj7MtVdbadBA"},"ChIJ4efsZV-lzR0R-pgjftSXVXw":{"geometry":{"location":{"lat":-33.871983,"lng":18.998451}},"id":"b4e3c963d785e31292221b11ad666c7a172bfe41","place_id":"ChIJ4efsZV-lzR0R-pgjftSXVXw","reference":"CmRRAAAAOxxnp9bThNpMlv4mAGIN0TRkdMmXWv7fiAnOSsrFgC7vgAc5Dm88ufLpdai3CT4aEbCG-IbvkqXLL_9fp4sqQATxmfpUdWPeja5I3G25Ap0j4TZBNSoSFURa1qDFiV6mEhAw0k5I61u7XyyHP0WZYkhkGhRXGZVyKmTGPl_Jk6-et-TfMzkkhA"},"ChIJw2pOgfayzR0RJPewf4Gr3JM":{"geometry":{"location":{"lat":-34.02585810000001,"lng":18.819313}},"id":"1b8f58bee51e0c52d4e02d136b1ab959c6bb8cc1","place_id":"ChIJw2pOgfayzR0RJPewf4Gr3JM","reference":"CmRSAAAAuVYaZ2-zg-f6n0xHhLstmqow36QvDJUB4zYP5oIGfVdzmcwyvw3KtTngo6mpPCSaiNQWR061LhG7h7KebCUiN64KMjBg5C2OWB2RiG_Kc4JkV5hNT1oo2SRKOBnbQI9KEhAoYyAoWWRcPiehJ7Wbemh1GhQHxpnYmNfxz6I-eL6tpDf9MwSoNA"},"ChIJuXZ4ikdozB0RtCY6F7ZtK8s":{"geometry":{"location":{"lat":-34.01401600000001,"lng":18.402192}},"id":"da03019fa30278a530215fa18396c84918eac65e","place_id":"ChIJuXZ4ikdozB0RtCY6F7ZtK8s","reference":"CmRSAAAA0eufppTL64vpjmdlf73eOp9ps5CBj1QtnXtemST9D0GMyb097er1TgAMR5OajfnLG23YA03_FeGf0erxG2mFdQyufEpSlODEbRmDsLltHAhlELKvZfN_mlSs1WjpMNnnEhCkojcN6x0_h0W6Nc8TPGZOGhR1oso-x7WH1m3mDKFgb54Umv83tw"},"ChIJMWUiOqhUzB0RW-srKsPHGUc":{"geometry":{"location":{"lat":-33.83459,"lng":18.79787}},"id":"0862067409ec9d01ac07a1a01e7686fc5cbe931a","place_id":"ChIJMWUiOqhUzB0RW-srKsPHGUc","reference":"CmRRAAAAuczSfq8_c4RITr63bpjCSulf9YWPnJAhSmCE0zku8nOcDJWLehNLyA9fKa-rNCFsI3qA8m9IZyC00EM5iaos56TkpZhXq9-VcidsNk-eYR-i-DebaZp_-HT1LJoHbW5nEhDV20EA3xKMhuOXfVjdfVSXGhTPDp1caEBb5wgrRPs6NMTAE4I-Fw"},"ChIJEX0pEmOozR0RkO2M4P58xAI":{"geometry":{"location":{"lat":-33.8300761,"lng":19.0100277}},"id":"76e55a5e37c3c5a2b51536293d32659be173967d","place_id":"ChIJEX0pEmOozR0RkO2M4P58xAI","reference":"CmRRAAAAkc7ONLQDIAy1hyTaxkrqGPOEACrxZZ8t-D1d0a8mRbPLWB-IMHgvJ5lOppOynCthwJg9666E35DyeuFIW5cpywcQMSelqFwAARg5vFD-9VhH_f1_kmZOHbYb8Yb8rgOoEhCAZunoP-6tnV_HqK6Avy0PGhTdICmqCOyHvn3s5SLW62Bkvqk6SA"},"ChIJh2NumYOzzR0RzapiMQrsmrU":{"geometry":{"location":{"lat":-33.997711,"lng":18.84966}},"id":"93933466e5268e2ad9ada7314f43277ea9a6fef0","place_id":"ChIJh2NumYOzzR0RzapiMQrsmrU","reference":"CmRSAAAAiULv2g9Xekt6svd4CLHgD2foIoKzSGMEEoqy-Mzi9op1J_zVVZk2yz5zhDumlfGJyfCX5EO5QzYAzAAwUZTVV3u7_Q7TbNYjFi5fpLMO89PxVwEgPd1k_QTmm7YI2DtzEhALLt0iQBud2LooBhH5E-wHGhTufsX-1x5CLJKr23kqqwCWzdzsPw"},"ChIJkU4E9BNpzB0Rfs0CcD4HDp0":{"geometry":{"location":{"lat":-34.0990537,"lng":18.3820853}},"id":"695630c6e7e0213d8fc87abd1bf86136183b1229","place_id":"ChIJkU4E9BNpzB0Rfs0CcD4HDp0","reference":"CmRSAAAAMdZE37RV8BfJfAGXByWikt41UmbcndN586h2v4aLJXkSXOxLFV-iSatpPCNeHhiHDEqChs_SLOrFvJTXsT7PEMftiXw7GhhULU9RQyW3EKlOWFRTjELNLcKacQzyBjS-EhAnDwyz3FC88y-Lsk2IRYhjGhT0zeglIJ4c8Q9RryhjdbD6HKBnfA"},"ChIJiyIJE_xZzB0RGb13WZvW6f0":{"geometry":{"location":{"lat":-33.86511,"lng":18.847308}},"id":"9dd2429d640e9ec5549f50f86cfa0e87ebd41d89","place_id":"ChIJiyIJE_xZzB0RGb13WZvW6f0","reference":"CmRSAAAAD3BodegtcscWiLHUkbbqH4lF1jAdxSAnoAl291jP_tOqVuk2ajR6Z_JIsan-oIb_ZiDoSkvYzkI7ejcAVFcitQejB3Xs1rZF2QmKTYrgxYgLho4HwKDyICOu3BiRRPWvEhAckyxebOviWQSTRyDU1xiWGhTTuQJKnnRtLozGSKQXevcCLigajg"},"ChIJ-4J_zOMCzR0RaWIZCRGpYLc":{"geometry":{"location":{"lat":-33.5984053,"lng":18.8586112}},"id":"830c3b1e70f33bf47c22f66ef7853408c59a956d","place_id":"ChIJ-4J_zOMCzR0RaWIZCRGpYLc","reference":"CmRSAAAAgfTN_sTr-gTnxh534QD86J8JErI72hoAiEylIFYFapZYNGSSxl1hP6w9ReJwQ6dEFls-vt8slJ7EnoOeQKjc4kJlW2Ia4tykOG4h37TFyf28Q8arOwVliBoJEREzdJ5kEhABbXS4zR4IXJxeBcUEwtTrGhQ2P4D3WBb0KLAGiiE0QUCv6_tezA"},"ChIJsZiBzwyszR0Ri-qpFHtaYDE":{"geometry":{"location":{"lat":-33.8299089,"lng":18.8796401}},"id":"970c36fd332099c9f9bfba52a8cd9af18de12f9e","place_id":"ChIJsZiBzwyszR0Ri-qpFHtaYDE","reference":"CmRRAAAAF_UdoIRXpPwxKQz-UYvHWDN1aGC-wZHgoP9ImUSkmKqJiIeh8AOMSpMT8S2CnGJqNhmrKmRldsub0heQ6s6aW6Rp7TZkRWoSGhM2-3M-ST8UPHHoZUGfewu0dKY4CEqXEhA3gSEJ5EVNZOdn508W3g4qGhTk5qQPkysQHP3jh_DKVQwvwjvavg"},"ChIJlU5cdx-0zR0R8rZda1gvbwA":{"geometry":{"location":{"lat":-34.012511,"lng":18.899178}},"id":"5ba1f34ccba0196ff0fc743313249dc3add36a06","place_id":"ChIJlU5cdx-0zR0R8rZda1gvbwA","reference":"ClRQAAAA58Oh8B5njxFoYM3e1vEs0bEp-Gfp7yUE3LsYEtehsuRJM2_QjMTOB7OlVO4nZuw-2fFz0C3L0ON4MdHFOEWsy6NeZtGYhj7v0bcingnpvvsSECfd_ewtAe49etis8hj9sRAaFFzYadrpJCd2NiCX8WOeO-ARYmCO"},"ChIJ_bTN3z6tzR0RHqxTL2vWTog":{"geometry":{"location":{"lat":-33.8929844,"lng":18.8263677}},"id":"f2e816965a434ab861b1dcd5448da5b04d32cefa","place_id":"ChIJ_bTN3z6tzR0RHqxTL2vWTog","reference":"CmRSAAAAUFNr59o90jsJ76KiVD7Lncpj_E2y2iDL7nnvEyg_G8aTKXl6Y2uKf1TYqbCuibqKsdaCaz8smZP68Z47Zs2V32QKhinTJHvYHbsaIrVgcWm6BTdOutYgfcuD4uc9-MaSEhBNKhTwVtmJFtE3zbS18GYdGhRhE_PJ5MAFnfQj1-yvQJEedSedNA"},"ChIJaad68HGszR0RFvcgLvptCBM":{"geometry":{"location":{"lat":-33.833385,"lng":18.877451}},"id":"8f414a6b704f653be309a017796a0761d14f9e17","place_id":"ChIJaad68HGszR0RFvcgLvptCBM","reference":"CmRRAAAAY858qvKfRdbN_-l30_Ic-4TGYI2Wx7stoejWalfsPQhbBoyiphmLGewX4KDZ6TcxO9fRlktYYLd1NRzacpU7-JVDfG7-k17UfXM5bk5NbpdvNZ-UX-eAImS6PA0yvcH3EhB1ooPexeujUgPU44J1N_KlGhQT_GRpsASzdiIqXtr3IngDykFX2g"},"ChIJEzSzKcexzR0RRYDEhALDiOU":{"geometry":{"location":{"lat":-33.9191689,"lng":18.9329806}},"id":"c638d774d8c347eaa8772d4d6a22b7766c56794e","place_id":"ChIJEzSzKcexzR0RRYDEhALDiOU","reference":"CmRSAAAAp2HTyw1_MuFltYB9oXeO1ycGz527GACQHL9q8vJ-cxN2YFbFDRWi1k37mLdTItDoHp9GplvRm9h1Qf4fwpvbP_sOhez1VpHE0vkN6P6NPh3lyGd5_h6Zvx9mrqrlpThUEhCULrJO0ZRmHLC0sGpSlQrkGhSAy7PHuwdyoI2X84z75iAZeVu8gQ"},"ChIJRTxVVwtNzB0REmjHfc5MC0I":{"geometry":{"location":{"lat":-33.8899629,"lng":18.8178337}},"id":"21ee052bb75b6b42cde1124816afd3e4772ed18e","place_id":"ChIJRTxVVwtNzB0REmjHfc5MC0I","reference":"CmRRAAAAffdGPA-CRRRUodDfNTHhzLTPUFNUJUsoBt8Jzp7Mhl-2Qbwbj7-q5_hQCZLvCNE7aCmEJmdyTmYedgbWfGWD3c0wnOmNjU_khbY4w8OWSBJb_ValflyxYA8sTKtjkqyJEhCwT2RUkNavKy5N22LSeIB3GhTWcoLQ-dzbGHY7aaynXDNUjQaYoQ"},"ChIJwzrY_rK0zR0RifP60h9AN7Y":{"geometry":{"location":{"lat":-34.018838,"lng":18.810396}},"id":"434aa36a1c9a1c91296a178e6a16daa054f0d579","place_id":"ChIJwzrY_rK0zR0RifP60h9AN7Y","reference":"CmRSAAAADRnhBHJYp-r32AY7HBqQPIfGL1ZD92q2xVHt4oeNO7tqpmxQHkT46AZP2MQCc4sGdKNgbqtbykwIRPN7lAIv0hWbxGx_46CqZvjZQgWdu7ScVHMazcmvfCbhg2KqyJzdEhCXTCyHzBJwES0ng23CXIg7GhT8XluZ5QBw38gKhBfC04v6UmH_ZQ"},"ChIJp3mdTh6vzR0RdWrEVcqY-hg":{"geometry":{"location":{"lat":-33.8351359,"lng":18.9514586}},"id":"98579576e8bcd955a650a5301fd4bb3ce43d4abe","place_id":"ChIJp3mdTh6vzR0RdWrEVcqY-hg","reference":"CmRRAAAANr7iCLJvCxCH0L0CKtgOv_rnm0rFpwSjtsVzfJNWT4pSrG_QVDI9xLup-RhORoXLgee1JDWVn1Ke5j8dYNyzk2S8BuVTvAS6Eb4Mx0T2q1miS1iLCVnH9yAokM7EB4StEhAVufOhNogMzkwOHN-VkgLGGhQcSmEtxWqMr38pPUlI42OYGR-wRA"},"ChIJ34cTaylNzB0RB7VvcyuG_LY":{"geometry":{"location":{"lat":-33.9616762,"lng":18.7983485}},"id":"16fc9787782122236d212183aa5f4edca242c3cf","place_id":"ChIJ34cTaylNzB0RB7VvcyuG_LY","reference":"CmRSAAAAgA8yedWTSFfCdk4-_6xB_reRBfvLH9AQQAdzw9-4z0OzJWvFeZiEW3h4vq5a2D5_6gWjwSt-tucq3ylqcwM3QihSIQCfrMdw3zz54tyjryuLYwng1vD5b1RfGWLwrTYxEhBQl_yT8ANB_JE3xCooI2MiGhRqlUzC3mFIfV4nANDqAqA-9RriQw"},"ChIJVVoAFqu0zR0RUna_31nlVns":{"geometry":{"location":{"lat":-34.0095861,"lng":18.8091141}},"id":"6b2a00af009129d420a90359a8e75015e85bee53","place_id":"ChIJVVoAFqu0zR0RUna_31nlVns","reference":"CmRRAAAAWA_87o4I9Rjw77P2eHC2XLTMlkXGPLk0dJTtmsVzZRPYoLzEEy5qp6Yx8-LYt28rP_NmUtqurz0Hh35gpNmsWaBcyB5e4Vs3zGsIxAnM7BoEUJwps0VSfvr4_-wDr7w9EhBUb7eFfhyo3XTkFlTI7WpDGhTLiqWMiXCuIE7AB3bQQgROpn8zpg"},"ChIJKaH2rHCzzR0RajPj75Il_Ww":{"geometry":{"location":{"lat":-33.9885627,"lng":18.8491917}},"id":"8476ebb3e8b25a8444a39ac8e66e9ec8f645105b","place_id":"ChIJKaH2rHCzzR0RajPj75Il_Ww","reference":"CmRRAAAAZRrXJENem0vgqQF19bwiU4ygdMVGxfD6ZtrYVZqrWqTNZTbP-5Vpv13Fx4WW3YfoHwun66432r0FONwFyN2Hnlw4u8qaRSUaSig7D2duBtF4ofWBolc4pKpwdV_4cFTzEhBYISFP_0TTYmLHtXToX-hhGhT7UkbJyOGNp2w5-WlQkmOICTvwEA"},"ChIJHbByH9iszR0RDwHJzPuNrtQ":{"geometry":{"location":{"lat":-33.870197,"lng":18.8252664}},"id":"35f7bc7170c7b8631abb2a1c77f204f4f9e4bba1","place_id":"ChIJHbByH9iszR0RDwHJzPuNrtQ","reference":"CmRSAAAAOO065-inrOAMov6NeskURz6Au2EdnjsNj_dg1p9irg1LKfrrJj2aQ6A3ZNJkHD6gFk7Df0jprzH-Wvhyj6IMyVvfMl7M6vnsw6VQp6O7Hgw9t3XWPikr77ZQyuEDLJfrEhDR_FQdGH-DucHLBtaA6kWQGhQHMEoO8G4zvYh5Y8NPfIFF7X3qFg"},"ChIJw7uGjkytzR0RS9J47yRtes4":{"geometry":{"location":{"lat":-33.9108311,"lng":18.8149312}},"id":"1e6efdb801e5a262672f7d44ab91ce2386453f08","place_id":"ChIJw7uGjkytzR0RS9J47yRtes4","reference":"CmRSAAAA3DAWlAwWx7lDlGZTc79tJj1TKIQIcPIydr1Mg_j0NRjNzkBg6w9exRmq0gtsEWSsSewafxf-ge3S3qs-Y3VCLvY73g49vr1Km68aEOcxlVA5WrDz8e9yJkYXzZNO7ruzEhBFyxFKHz61339dLM8njJbBGhQcQhV0Psc0HJNdAoCetV5sqtj59g"},"ChIJcd001Ze0zR0RGi046RLipbA":{"geometry":{"location":{"lat":-34.017507,"lng":18.830724}},"id":"4ba832277d3786eea23fb0cf71bb81bf8289e6dc","place_id":"ChIJcd001Ze0zR0RGi046RLipbA","reference":"CmRSAAAAK2BFfuCfaibHJopCNaQUW4Os54C5Y046G0ikFgIRmvdBnVs5IEPAJBqoe9SGMDYQNAkS8TpDOV3V8-AESWnf02qoaKpEwMBEh0SgvPlTdW5XKAxWb8yzKtJeSmZs5ocWEhBlEhsBB_maLKbu5Z36cP_XGhQr3NAkUawU-8kedJ-2_x7XZUtHaQ"},"ChIJbVh8k5gPzR0Rnmmmwjmefjc":{"geometry":{"location":{"lat":-33.5778,"lng":19.020209}},"id":"5579b99265a7bccf5aa5cb54e81b56f785382ab1","place_id":"ChIJbVh8k5gPzR0Rnmmmwjmefjc","reference":"CmRRAAAAU8WyFNWLELjqt4OWdSDcmEr_JE5En6-dyB0HAo3LeAZEmxrlFmwempU2Y9WgM2k-LFGsDEy8izPsuIsn8ZgAffSflIAo50FQulKZN99OqPW3b7Ap-u_mMfe82tbZw663EhBO88A0rCJTTqZdEFXKxubEGhQqs_duZdTuiI4K2V4B1sLMYrMhKg"},"ChIJndxaAPsFzR0RebybZVcGWfI":{"geometry":{"location":{"lat":-33.61373800000001,"lng":19.004388}},"id":"87d917a85a071c15ec656ab9ef785d82cf3164f9","place_id":"ChIJndxaAPsFzR0RebybZVcGWfI","reference":"CmRSAAAAaFziydk0V6TfgI-0q8NAn6qBvhxOhdlCDg-O4fvijOBGVGpjPXI77fqNQPOEBxy9-zpCXgPWhQhQTmNao6Js2ne_kDq4m9dez3Lf5irXtocmIzYu8tzoLa3e2WE89cqkEhBvolAWWt_td8ezUsGqlIxiGhTpjGZViLPvfdqxnqSNwTsUO7ADtg"},"ChIJWWdWxmaozR0RhUjF85aRkDg":{"geometry":{"location":{"lat":-33.7574165,"lng":18.9799415}},"id":"09022c580df578d7a6280313361afcd75b1afb59","place_id":"ChIJWWdWxmaozR0RhUjF85aRkDg","reference":"CmRRAAAAiw_wPWwoRUdcsIrLm3WHssMl5b_R_dRLuvV5nzV5ec_THAUJOkak5U9PIfA7EF9LNB6mFLcHc4IfKXG-tIWjE3lP2V5KIsGfW4MaTWJct99F0KEhEWCrFw-41uiB0GabEhAITrxNjInHh19srO013xclGhR3gmlaJA4i2VDdGSYywILpfx9Eig"},"ChIJS4-wm3xSzB0RpGMdM5qfX0I":{"geometry":{"location":{"lat":-33.9196075,"lng":18.7551309}},"id":"f0a59700ee8cfa6a69bb42420aa8a3aa3be7f89c","place_id":"ChIJS4-wm3xSzB0RpGMdM5qfX0I","reference":"CmRRAAAAUKpPub52XmGCJl7TD0jQIKitxIgtoOiJo_YemTYQoWSujbOawBC0oHrMx7vGmhHqfZBAB0hu5qIUAnJyoRwCorsZRYK4USk_GURsXJHcTY1ETohWs4XXB9FSvulHfRc0EhD2rWg8h1u6eudzRS_jmb_pGhRj21YsmvcI6ZsyuMB_5ZYQWczS1g"},"ChIJfbjnAvwhzR0RvqdpfcvQocI":{"geometry":{"location":{"lat":-33.909511,"lng":19.1045851}},"id":"bdf916ad683129429d034e77af338c4822eff905","place_id":"ChIJfbjnAvwhzR0RvqdpfcvQocI","reference":"CmRSAAAAxCidIyXxXM7LOU9CDxnuj6t-zE0NAjoI2RDiPWxVzkRh57atL4frvhuTiItmv4gitV1PSa4k3oczvfZYJm-d2meUnJcup1b5rLyj0m6iw1zE3_cIzj7YlT7_4TfwZ-P-EhCP6y4mZfA12ZlYHwp0jWpzGhQ-CPouTFQMdHLwuli1pOy-O5_BXg"},"ChIJA1t_VFAJzR0RW9p2PTL9Wps":{"geometry":{"location":{"lat":-33.6260936,"lng":19.0839009}},"id":"c43db2a15f9e2a7872807b82e38220550df6a1e2","place_id":"ChIJA1t_VFAJzR0RW9p2PTL9Wps","reference":"CmRSAAAAv4E23ce4pTQlVsXaoBWDG5oUUl1TFzuk6xXrJfT3ADJhcc0CsGLN_tcjeATwsSJ11XHOTuUpL9Ld9D_OGb4t5M7363ORgY2koXtKUA0e2OUDwNy-fjYMejZSuxOqSV7_EhAP7dIyFXF3xlx91kXGh1skGhRd2B4XSBWAd055eTqHomLubU6nag"},"ChIJr4ifRCQPzR0RCLTPz2EB_No":{"geometry":{"location":{"lat":-33.612622,"lng":19.033679}},"id":"e29ade592f8e9f58922e2173d41295411fabf66a","place_id":"ChIJr4ifRCQPzR0RCLTPz2EB_No","reference":"CmRSAAAAX6IbPiaNgrueAUhFQkG-ana6tQ6xgJDEdpcOXiIS-ZC2kj9vjREv_z2Q1Tvq517f3f6W8smvdm92i831Suk3iqIcCb9QcOuT3ALOc7kmOJqx7cM9DTKjVMhKQ5knSWVgEhBpTolOGidfp5PHbczTONnGGhRP6Ni3nIN1K-qRGmj-T7OwzNpz2g"},"ChIJXSlQL4uyzR0RRel70oIL5m8":{"geometry":{"location":{"lat":-33.934263,"lng":18.851734}},"id":"031ebd8fb620e4c8d8aae719c7263bb732558fc6","place_id":"ChIJXSlQL4uyzR0RRel70oIL5m8","reference":"CmRRAAAAvRoeTgW28OQgj87xo6t9FrjTxI1r6N4TTPlbSKuyxlb-rdL_MJj8qJd-m24ut58I0r7h9eGDmEV8vABl7A2FTaBfFNb29JFxR5Z0CfMed5rrU-HeS8nhGyslD0DcSOw7EhB4UrGnnNEhL-MdF5z0cIzBGhT8sol2b9SdosRGf8CWOPoRQrxOCA"},"ChIJa2DVBG8fzR0RWkAaGTM4XWw":{"geometry":{"location":{"lat":-33.4055306,"lng":18.8707389}},"id":"c747ba640693d551cddd68052f5138d3df68b930","place_id":"ChIJa2DVBG8fzR0RWkAaGTM4XWw","reference":"CmRRAAAAyf1I00yf3LoonCdApSEjQdzt19DSZApBJjfssydII88o8HD57KvS_tOHEv2zKRLWDMGUeyw6ZxXUR8dOzWMqSfZI7A-DrMTzj8kqtsSq_01YqoYU6ohnTaw0OuQJMm4zEhBal_XcM-gB95Spvg9tzNy8GhRG9ejeQWSttx6w9i7Slxs183pmWg"},"ChIJ8dNxxFkfzR0RT49oFl37_04":{"geometry":{"location":{"lat":-33.3940998,"lng":18.8900336}},"id":"95327ef9219e5b8d006d5ce598326790cc2f8a05","place_id":"ChIJ8dNxxFkfzR0RT49oFl37_04","reference":"CmRRAAAAvbTQcw8NVw4nJ4CoaZPo_F3n_n7yGUs0kH15hmoeC2hSLjdbpMqWsPkbSzQNsaZpiDf6Qmeqv-SJmpJS-KBpaCAjkMfRecuosv_f7q5hH1MTWtwHDrlk6u7pKdCli1H-EhBkCKRNpN1i2ZtUb7NsIKLGGhSwIhfm_0CWSAkqMfLTcY9aPoF43Q"},"ChIJgXhxAU-7zR0RiF4EZZxUaGw":{"geometry":{"location":{"lat":-33.885789,"lng":19.080269}},"id":"2e872e3994a3783f2270e20e17f74f572a61eb05","place_id":"ChIJgXhxAU-7zR0RiF4EZZxUaGw","reference":"CmRRAAAAAtoCCcVBP22JPQqWm6l6rP-b8sR_9s058s3eygzBRPPSf3EIUGkvF48QaTPCezT_ObDzYTSF97VUGHbk78v2cT_E6OmRka_43swIkOtVAunmzzh9jwNvnsIRhtHEGntbEhAW_jJeBjLd6p3VYPgzhd-_GhQel67Fk8waHR-pd42hLbThBWPk-w"},"ChIJf-OzsSu5zB0RdDmVdPq97kc":{"geometry":{"location":{"lat":-33.4833989,"lng":18.4097753}},"id":"2a451cfbab096c7abb74ca0888a304300ccd9d39","place_id":"ChIJf-OzsSu5zB0RdDmVdPq97kc","reference":"CmRRAAAA0O7u4se0z7FkGZuo6gPvRApOp9Bdinl6dFT1AFFjYe0SZtajl_ufgT5swF0KnATbKSIME0EB4pu2DnSMsi-cImLj3aIlBQ0flSrVS-wyFs_JbV6ez9nIgVKE45x3lF-QEhCAhIkmzYVmNsbc4l8v6arwGhQYxT4eeEVJP46cIfKzJSYA1FaWQQ"},"ChIJF11hZVS8zR0R5zg2ZgdSRGU":{"geometry":{"location":{"lat":-33.91421,"lng":19.13565}},"id":"61a342ebc86abed94a494e3be34c816cbc44cb64","place_id":"ChIJF11hZVS8zR0R5zg2ZgdSRGU","reference":"CmRRAAAAZ2lDS-tKNnG7Ge84CNE3DRI_5LpJoSmH2MF6O9mNGDVQj_mw5s2hHfryHAc7CYANAapJ1vs7v6YH_Bp2GA0DThSG65g4B-CUGxGr1XKMUE-Iv1uwEKGNqpfzj3LXBZuDEhDLAF1O48tmgfnr1SznxwfsGhSxDT_XwVpZqBFAyEZWziYsnDlEaQ"},"ChIJPU5RhL_izB0R4jGDzXyC55M":{"geometry":{"location":{"lat":-33.5581761,"lng":18.7847741}},"id":"a7615360f39346414aaf5f1ba832a6d8f6e4e558","place_id":"ChIJPU5RhL_izB0R4jGDzXyC55M","reference":"CmRSAAAA0ErWjy1PRfuX2IsjQonLWYzNkISZUWu1vhDb9Hso8fPobD2GgqKkgOxxIjqjIy_OC1tpbCcA9u6jSZPgV3aJnZLCTR2S7eHAkJMpSjruUxrwi2S5DeSh8MV9uKGKvzczEhBfEfgaFhdc39aDg6qy5w6GGhT-NTZq_znanNlKemKp-9KCMypCCw"},"ChIJhcjSjSmtzR0RORDvJnHtQtk":{"geometry":{"location":{"lat":-33.877532,"lng":18.8138549}},"id":"509ded0fc3fff559b8db634111f7c911b46baa3a","place_id":"ChIJhcjSjSmtzR0RORDvJnHtQtk","reference":"CmRSAAAAtxrURkDNqe3L2HphHY2-F-2cE4RcYt0mDKRuWXkfF2fFYyIr9rM_VTfx4Ors8NyqPSjEJ8YJgKf7HXovhQ5u4-skqr31fsHUcWSFeTwoVznL8A40Lg7lWrRTFxCzcINMEhAYp08xMIbW6fVUBvyw4TSHGhRkR_WvSzd8r1Cy7s_FYFqQXsU5xQ"},"ChIJoYpt23KozR0RyYnqOA2shms":{"geometry":{"location":{"lat":-33.74861509999999,"lng":18.9779376}},"id":"7d3aa832e26baa2cb6bf90a22b59712776e80db4","place_id":"ChIJoYpt23KozR0RyYnqOA2shms","reference":"CmRRAAAAZSeI9VBid6klGTW5DN1iVD30s-eCU-B83MKBqyyKrqzE-lwUDHejU7cKuFGbz-f07hdEkna0wFfMWMq7wBHGG_RizpRy2wmsfq1tTIm8S5peUYwjX-7Ei4qPuCUn3rf3EhCbbTYwfpOJMFTUdBgLox0yGhRtjia6PwOi7Q6bCTyxDPnjOcGSAA"},"ChIJodtBWt-kzR0Rs_4FTConVxM":{"geometry":{"location":{"lat":-33.86543,"lng":19.0458}},"id":"c33c8bfd3743a4daaedf5eb367c4ba9b43f301b9","place_id":"ChIJodtBWt-kzR0Rs_4FTConVxM","reference":"CmRRAAAAhr0DNjhB2aR5WPFx9MRSMafzUuh9Y6kAJPtOx6VvJCfK6BZmoRila6c7DQaTKQuEuCWpanhIs7CG0V9fy6aI3gJtdmWELZ1ki9AfX-gP68rb4Xn4OSnnYAcEPWxRn0oAEhCAL-Ru1M44npADVQyodldNGhQw7IaPI_PnyZMPukMJjC_y-kyyQA"},"ChIJ78p9zu6dzR0RiHCh1hrlTmg":{"geometry":{"location":{"lat":-33.6940041,"lng":19.2841778}},"id":"9e24fb792d9e507d3fef0c0124fba45eb22ebc03","place_id":"ChIJ78p9zu6dzR0RiHCh1hrlTmg","reference":"CmRRAAAAobdz6yFC3wYDgDBDdjPw22IgULcQzJYupzcFmdITunT1EAT1cPs3EKravI4hHfkdeiaFUdxAfuyiMAxK-tTDOV9sOAeKzDNZYTyz56Fejy6IJCUg6ovJnGMsVfYZ1xhXEhDe8RuqzQPYc74jZUFJu9K3GhRkZWccAaAFj4uZOs5eEFSvotRC4A"}}